     3.03           OBSERVATION DATA    M: Mixed            RINEX VERSION / TYPE
Geo++ RINEX Logger  Geo++               20220505 155942 UTC PGM / RUN BY / DATE
************************************************************COMMENT
This file was generated by the Geo++ RINEX Logger App       COMMENT
for Android devices (Version 2.1.6). If you encounter       COMMENT
any issues, please send an email to android@geopp.de        COMMENT
Filtering Mode: MORE                                        COMMENT
************************************************************COMMENT
Geo++                                                       MARKER NAME
GEODETIC                                                    MARKER TYPE
Geo++               Geo++                                   OBSERVER / AGENCY
unknown             HUAWEI              ELE-L29             REC # / TYPE / VERS
unknown             ELE-L29                                 ANT # / TYPE
  5213931.4158  -264954.6093  3651872.6809                  APPROX POSITION XYZ
        0.0000        0.0000        0.0000                  ANTENNA: DELTA H/E/N
G    8 C1C L1C D1C S1C C5Q L5Q D5Q S5Q                      SYS / # / OBS TYPES
R    4 C1C L1C D1C S1C                                      SYS / # / OBS TYPES
E   12 C1B L1B D1B S1B C1C L1C D1C S1C C5Q L5Q D5Q S5Q      SYS / # / OBS TYPES
C    4 C2I L2I D2I S2I                                      SYS / # / OBS TYPES
J    8 C1C L1C D1C S1C C5Q L5Q D5Q S5Q                      SYS / # / OBS TYPES
  2022     5     5    16     0    0.9998705     GPS         TIME OF FIRST OBS
 24 R01  1 R02 -4 R03  5 R04  6 R05  1 R06 -4 R07  5 R08  6 GLONASS SLOT / FRQ #
    R09 -2 R10 -5 R11  0 R12 -1 R13 -2 R14 -7 R15  0 R16 -1 GLONASS SLOT / FRQ #
    R17  4 R18 -3 R19  3 R20  2 R21  4 R22 -3 R23  3 R24  2 GLONASS SLOT / FRQ #
G L1C                                                       SYS / PHASE SHIFT
G L5Q -0.25000                                              SYS / PHASE SHIFT
R L1C                                                       SYS / PHASE SHIFT
E L1B                                                       SYS / PHASE SHIFT
E L1C +0.50000                                              SYS / PHASE SHIFT
E L5Q -0.25000                                              SYS / PHASE SHIFT
C L2I                                                       SYS / PHASE SHIFT
J L1C                                                       SYS / PHASE SHIFT
J L5Q -0.25000                                              SYS / PHASE SHIFT
 C1C    0.000 C1P    0.000 C2C    0.000 C2P    0.000        GLONASS COD/PHS/BIS
                                                            END OF HEADER
> 2022  5  5 16  0  0.9998705  0 27
C19  22811764.844   118786780.122        2273.701          40.000  
C20  23138874.091   120490093.202        -493.571          42.000  
C24  27008975.875   140642680.311         792.829          26.000  
C26  24914027.078   129733730.132       -1231.319          30.000  
C29  22007446.862   114598459.581        -740.917          40.000  
C30  25450649.882   132528048.040       -2371.284          39.000  
C35  22812800.627   118792157.792        1374.748          35.000  
E02                                                                                                                                  24706526.927    96953696.985       -1805.726          36.000  
E05                                                                                                                                  26903704.353   105575900.022        1836.051          30.000  
E36                                                                                                                                  24410169.192    95790731.427        -914.452          35.000  
G01  22230702.005   116823124.225        1960.252          32.000    22230706.802    87238069.402        1463.051          36.000  
G03  24775796.673   130197738.538        3620.709          41.000    24775816.159    97225721.914        2703.284          24.000  
G08  20498914.297   107722515.684         571.341          38.000    20498920.892    80442155.926         427.305          38.000  
G10  22766107.352   119636673.306       -2785.771          42.000    22766111.849    89339085.785       -2080.331          36.000  
G16  23682729.088   124453548.214       -3799.053          37.000  
G21  21156992.919   111180748.0391         92.493          35.000  
G22  24225829.207   127307566.654        2027.918          37.000  
G27  20963780.277   110165391.988       -1663.615          41.000    20963787.472    82266398.690       -1242.207          38.000  
G32  23795801.509   125047713.981        1544.273          39.000    23795808.405    93379872.058        1152.372          30.000  
R05  22146347.003   118384917.009       -2497.323          41.000  
R06  20447974.162   109114235.977        1821.995          28.000  
R07  22826356.043   122191271.930        4092.053          41.000  
R11  21725095.429   116092323.664       -3263.781          38.000  
R12  21993287.964   117484197.660         306.006          36.000  
R20  22702327.406   121399548.026       -2319.472          25.000  
R21  20366037.586   108982781.837          19.288          41.000  
R22  21980200.224   117331801.608        1804.781          25.000  
> 2022  5  5 16  0  1.9998705  0 26
C19  22811328.046   118784505.779        2274.806          41.000  
C20  23138969.425   120490587.268        -493.179          40.000  
C26  24914264.514   129734962.272       -1233.352          30.000  
C29  22007587.164   114599200.524        -739.615          40.000  
C30  25451104.367   132530418.711       -2371.145          39.000  
C35  22812537.109   118790784.058        1372.128          36.000  
E02                                                                                                                                  24706986.809    96955502.132       -1805.706          34.000  
E05                                                                                                                                  26903236.377   105574064.300        1836.075          31.000  
E36                                                                                                                                  24410402.430    95791646.272        -915.317          35.000  
G01  22230330.862   116821164.751        1958.824          37.000    22230334.759    87236606.578        1462.497          36.000  
G03  24775106.850   130194117.680        3620.338          39.000    24775128.136    97223018.781        2702.398          28.000  
G08  20498805.772   107721944.886         572.159          38.000    20498811.468    80441729.265         427.920          38.000  
G10  22766636.186   119639460.122       -2785.959          41.000    22766641.882    89341166.296       -2080.358          35.000  
G16  23683450.988   124457346.272       -3797.894          37.000  
G21  21156975.231   111180656.640          90.067          37.000  
G22  24225443.974   127305539.032        2028.365          39.000  
G27  20964098.656   110167055.739       -1662.285          41.000    20964103.753    82267641.041       -1241.654          37.000  
G32  23795505.614   125046169.132        1546.233          39.000    23795515.507    93378718.899        1154.473          29.000  
R05  22146810.482   118387395.030       -2497.685          40.000  
R06  20447628.202   109112414.294        1821.767          27.000  
R07  22825590.373   122187172.866        4093.807          40.000  
R11  21725704.608   116095578.749       -3264.229          35.000  
R12  21993228.605   117483880.559         303.362          32.000  
R20  22702758.507   121401853.084       -2319.829          26.000  
R21  20366034.588   108982765.620          18.571          42.000  
R22  21979863.257   117330003.511        1802.195          21.000  
> 2022  5  5 16  0  2.9998702  0 25
C19  22810801.311   118781765.912        2269.411          41.000  
C20  23138974.221   120490613.105        -495.396          42.000  
C26  24914412.311   129735727.027       -1232.928          31.000  
C29  22007638.729   114599472.452        -740.743          39.000  
C30  25451468.915   132532321.593       -2371.645          37.000  
C35  22812183.654   118788942.649        1374.168          34.000  
E02                                                                                                                                  24707357.053    96956955.492       -1806.893          32.000  
E05                                                                                                                                  26902679.063   105571876.305        1833.925          32.000  
E36                                                                                                                                  24410545.131    95792207.870        -914.504          35.000  
G01  22229868.282   116818733.474        1959.266          34.000    22229872.480    87234791.085        1463.235          38.000  
G03  24774327.390   130190027.043        3617.495          41.000    24774349.874    97219964.078        2701.187          33.000  
G08  20498607.609   107720899.663         572.736          39.000    20498613.006    80440948.052         427.321          38.000  
G10  22767076.581   119641771.977       -2784.980          42.000    22767082.577    89342892.785       -2079.723          37.000  
G16  23684085.049   124460675.234       -3802.478          40.000  
G21  21156866.706   111180093.112          91.891          36.000  
G22  24224967.904   127303041.418        2023.731          37.000  
G27  20964325.899   110168247.023       -1665.133          42.000    20964330.096    82268531.336       -1243.900          36.000  
G32  23795123.079   125044150.953        1543.607          35.000    23795132.373    93377212.529        1152.398          34.000  
R05  22147186.722   118389405.963       -2496.374          41.000  
R06  20447195.301   109110113.504        1819.252          29.000  
R07  22824733.566   122182586.808        4088.063          38.000  
R11  21726224.148   116098355.187       -3265.443          34.000  
R12  21993082.006   117483097.303         304.395          32.000  
R21  20365944.650   108982284.427          22.179          41.000  
R22  21979429.757   117327689.330        1804.513          22.000  
> 2022  5  5 16  0  3.9998700  0 26
C19  22810306.054   118779182.564        2274.387          40.000  
C20  23139007.798   120490796.174        -493.766          40.000  
C26  24914589.489   129736647.792       -1234.036          35.000  
C29  22007721.172   114599901.106        -740.172          41.000  
C30  25451863.442   132534380.548       -2368.405          37.000  
C35  22811860.478   118787256.502        1372.715          37.000  
E02                                                                                                                                  24707757.276    96958527.576       -1808.238          32.000  
E05                                                                                                                                  26902151.728   105569806.621        1835.452          33.000  
E36                                                                                                                                  24410718.411    95792887.359        -915.367          35.000  
G01  22229436.281   116816459.419        1958.048          35.000    22229439.879    87233092.897        1461.950          37.000  
G03  24773579.108   130186093.554        3620.129          37.000    24773601.293    97217027.402        2701.929          35.000  
G08  20498440.625   107720013.792         570.410          39.000    20498444.522    80440286.716         425.584          38.000  
G10  22767546.955   119644242.534       -2786.011          42.000    22767552.052    89344737.779       -2079.192          36.000  
G16  23684749.089   124464161.352       -3798.651          38.000  
G21  21156789.060   111179686.179          91.243          35.000  
G22  24224518.815   127300699.764        2028.291          36.000  
G27  20964581.322   110169596.383       -1662.521          42.000    20964587.018    82269539.692       -1242.367          37.000  
G32  23794769.924   125042292.579        1543.516          38.000    23794778.917    93375825.639        1151.979          31.000  
R05  22147595.039   118391588.386       -2499.273          40.000  
R06  20446793.280   109107974.630        1818.832          27.000  
R07  22823903.440   122178142.141        4094.357          41.000  
R11  21726776.666   116101307.939       -3266.697          31.000  
R12  21992961.190   117482451.737         303.188          34.000  
R20  22703478.009   121405700.7131      -2318.197          18.000  
R21  20365875.698   108981914.784          17.945          42.000  
R22  21979027.436   117325541.896        1801.938          23.000  
> 2022  5  5 16  0  4.9998700  0 25
C19  22809869.256   118776909.251        2271.477          42.000  
C20  23139102.533   120491290.321        -495.039          41.000  
C26  24914825.725   129737881.581       -1233.570          30.000  
C29  22007862.074   114600640.818        -739.179          39.000  
C30  25452318.527   132536749.904       -2370.880          37.000  
C35  22811596.960   118785883.495        1373.036          35.000  
E02                                                                                                                                  24708218.057    96960334.454       -1805.993          31.000  
E05                                                                                                                                  26901684.052   105567970.700        1836.059          35.000  
E36                                                                                                                                  24410951.950    95793801.891        -914.346          35.000  
G01  22229063.939   116814501.259        1958.450          35.000    22229065.138    87231631.551        1461.445          29.000  
G03  24772891.684   130182474.023        3619.295          37.000    24772913.269    97214325.180        2702.698          36.000  
G08  20498331.500   107719442.145         571.442          39.000    20498335.997    80439860.228         425.818          39.000  
G10  22768077.588   119647028.393       -2785.592          42.000    22768082.684    89346817.320       -2080.419          36.000  
G16  23685473.088   124467960.950       -3801.179          40.000  
G21  21156771.972   111179594.792          91.645          39.000  
G22  24224135.680   127298672.939        2025.831          36.000  
G27  20964898.203   110171259.936       -1664.450          41.000    20964903.899    82270781.668       -1242.540          36.000  
G32  23794476.427   125040748.959        1543.164          37.000    23794485.421    93374673.218        1152.549          36.000  
R05  22148067.812   118394116.474       -2499.258          41.000  
R06  20446451.516   109106155.303        1819.163          29.000  
R07  22823139.569   122174053.937        4091.593          41.000  
R11  21727387.643   116104572.803       -3266.701          28.000  
R12  21992903.630   117482144.013         302.526          28.000  
R20  22703907.012   121407994.224       -2319.578          26.000  
R21  20365870.002   108981885.167          20.549          42.000  
> 2022  5  5 16  0  5.9998697  0 27
C19  22809343.120   118774169.750        2271.635          40.000  
C20  23139109.428   120491317.518        -496.247          42.000  
C24  27007976.367   140637480.1541        789.026          31.000  
C26  24914973.223   129738647.282       -1234.525          31.000  
C29  22007916.037   114600913.195        -741.891          40.000  
C30  25452683.374   132538652.339       -2370.548          38.000  
C35  22811243.805   118784042.050        1372.523          35.000  
E02                                                                                                                                  24708588.900    96961788.432       -1807.642          28.000  
E05                                                                                                                                  26901126.438   105565781.666        1837.093          37.000  
E36                                                                                                                                  24411095.250    95794363.301        -914.892          35.000  
G01                                                                  22228603.158    87229816.939        1461.406          34.000  
G03  24772114.622   130178382.640        3618.516          35.000    24772134.408    97211269.903        2702.848          35.000  
G08  20498131.539   107718399.380         569.662          39.000    20498137.535    80439082.191         424.613          39.000  
G10  22768516.484   119649341.593       -2786.452          41.000    22768523.379    89348544.318       -2080.197          34.000  
G16  23686108.348   124471288.936       -3799.824          40.000  
G21  21156664.946   111179031.322          89.560          37.000  
G22  24223659.909   127296173.092        2027.901          40.000  
G27  20965124.546   110172451.805       -1664.714          42.000    20965130.542    82271672.027       -1244.169          37.000  
G32  23794089.395   125038732.119        1544.483          43.000    23794101.386    93373167.509        1153.171          35.000  
R05  22148444.951   118396131.767       -2499.841          41.000  
R06  20446017.716   109103856.471        1818.786          29.000  
R07  22822285.760   122169482.968        4091.780          41.000  
R11  21727906.283   116107343.665       -3268.132          28.000  
R12  21992757.031   117481361.360         301.436          30.000  
R20  22704257.769   121409870.607       -2317.113          25.000  
R21  20365776.466   108981383.895          17.370          42.000  
R22  21978271.060   117321504.2251       1802.758          18.000  
> 2022  5  5 16  0  6.9998697  0 26
C19  22808906.922   118771897.259        2272.261          39.000  
C20  23139203.563   120491813.834        -497.525          41.000  
C26  24915211.858   129739882.054       -1234.830          33.000  
C29  22008060.237   114601655.297        -742.382          39.000  
C30  25453137.859   132541022.250       -2369.684          31.000  
C35  22810980.287   118782669.765        1372.092          39.000  
E02                                                                                                                                  24709049.381    96963596.778       -1808.698          29.000  
E05                                                                                                                                  26900658.462   105563944.677        1836.583          29.000  
E36                                                                                                                                  24411328.489    95795278.519        -915.577          34.000  
G01                                                                  22228231.116    87228355.286        1461.890          34.000  
G03  24771427.498   130174763.716        3619.622          35.000    24771444.886    97208565.691        2704.617          30.000  
G08  20498021.515   107717830.013         570.123          39.000    20498029.010    80438657.212         425.105          37.000  
G10  22769047.117   119652128.920       -2787.670          40.000    22769052.813    89350624.268       -2081.273          33.000  
G16  23686830.848   124475087.903       -3799.493          38.000  
G21  21156650.256   111178941.404          90.453          38.000  
G22  24223272.877   127294145.667        2026.746          39.000  
G27  20965442.027   110174116.887       -1666.263          39.000    20965448.022    82272916.120       -1244.942          34.000  
G32  23793794.099   125037187.478        1544.249          38.000  
R05  22148909.929   118398617.214       -2502.116          39.000  
R06  20445676.553   109102038.149        1817.725          29.000  
R07  22821524.887   122165410.016        4092.916          39.000  
R11  21728517.261   116110608.676       -3267.858          31.000  
R12  21992700.370   117481057.953         299.694          35.000  
R20  22704693.068   121412198.055       -2319.467          27.000  
R21  20365778.865   108981396.613          17.868          42.000  
R22  21977932.594   117319697.055        1801.900          24.000  
> 2022  5  5 16  0  7.9998697  0 27
C19  22808470.125   118769626.651        2269.861          39.000  
C20  23139298.297   120492311.579        -498.138          40.000  
C24  27007666.382   140635903.2041        788.740          23.000  
C26  24915448.094   129741115.499       -1232.513          32.000  
C29  22008202.638   114602396.792        -741.400          40.000  
C30  25453593.244   132543392.745       -2371.578          42.000  
C35  22810716.769   118781296.874        1374.213          38.000  
E02                                                                                                                                  24709510.162    96965405.053       -1807.901          35.000  
E05                                                                                                                                  26900189.586   105562108.851        1833.660          28.000  
E36                                                                                                                                  24411562.027    95796193.688        -914.775          36.000  
G01  22227854.876   116808156.2291       1958.623          34.000    22227858.774    87226892.686        1463.287          36.000  
G03  24770738.874   130171144.096        3619.494          40.000    24770755.962    97205861.889        2702.745          35.000  
G08  20497916.288   107717259.135         570.673          40.000    20497921.085    80438231.713         425.389          38.000  
G10  22769578.649   119654915.899       -2787.150          41.000    22769583.146    89352705.320       -2081.473          38.000  
G16  23687552.748   124478888.816       -3801.979          39.000  
G21  21156636.465   111178849.284          92.789          39.000  
G22  24222885.845   127292119.933        2024.687          33.000  
G27  20965756.509   110175783.248       -1667.088          40.000    20965765.503    82274160.814       -1244.675          37.000  
G32  23793500.602   125035644.683        1540.793          36.000  
R05  22149380.303   118401132.481       -2501.292          41.000  
R06  20445335.988   109100221.114        1815.520          27.000  
R07  22820761.615   122161324.289        4089.765          42.000  
R11  21729131.535   116113891.379       -3267.397          33.000  
R12  21992643.710   117480755.766         301.306          32.000  
R20  22705125.069   121414507.824       -2321.722          25.000  
R21  20365774.668   108981374.624          20.402          42.000  
R22  21977596.527   117317903.161        1803.798          20.000  
> 2022  5  5 16  0  8.9998697  0 27
C19  22808035.725   118767356.750        2269.466          41.000  
C20  23139396.629   120492808.501        -495.666          41.000  
C24  27007509.890   140635114.037         790.169          24.000  
C26  24915684.930   129742347.996       -1232.661          33.000  
C29  22008343.541   114603137.260        -739.908          40.000  
C30  25454048.629   132545764.684       -2371.632          41.000  
C35  22810451.453   118779921.971        1375.054          40.000  
E02                                                                                                                                  24709970.643    96967212.761       -1808.313          36.000  
E05                                                                                                                                  26899722.210   105560275.136        1833.460          30.000  
E36                                                                                                                                  24411795.566    95797107.714        -912.724          37.000  
G01  22227482.234   116806196.738        1959.300          35.000    22227485.532    87225428.851        1463.009          35.000  
G03  24770047.253   130167525.475        3616.375          42.000    24770067.339    97203159.477        2700.680          35.000  
G08  20497808.063   107716688.434         571.061          42.000    20497812.560    80437805.743         425.917          39.000  
G10  22770108.682   119657701.402       -2783.595          41.000    22770113.778    89354786.332       -2079.988          35.000  
G16  23688274.649   124482690.700       -3802.621          38.000  
G21  21156619.377   111178757.583          91.616          38.000  
G22  24222500.912   127290095.098        2024.716          29.000  
G27  20966075.188   110177448.726       -1664.280          40.000    20966080.285    82275405.260       -1243.734          32.000  
G32  23793209.504   125034102.282        1543.780          40.000  
R05  22149844.682   118403614.372       -2498.221          42.000  
R06  20444996.923   109098405.537        1815.698          28.000  
R07  22819997.145   122157232.128        4089.158          42.000  
R11  21729745.510   116117171.902       -3268.262          40.000  
R12  21992584.351   117480438.253         301.248          34.000  
R20  22705557.969   121416823.267       -2319.471          25.000  
R21  20365771.969   108981360.497          22.051          43.000  
R22  21977259.260   117316102.913        1805.452          24.000  
> 2022  5  5 16  0  9.9998694  0 27
C19  22807511.089   118764618.581        2271.166          40.000  
C20  23139400.526   120492837.026        -498.208          41.000  
C24  27007268.557   140633855.256         790.246          32.000  
C26  24915832.128   129743112.110       -1232.329          33.000  
C29  22008396.304   114603409.278        -741.627          40.000  
C30  25454418.273   132547667.593       -2371.323          40.000  
C35  22810097.098   118778078.411        1375.162          39.000  
E02                                                                                                                                  24710341.786    96968668.200       -1808.185          34.000  
E05                                                                                                                                  26899164.896   105558087.901        1835.267          29.000  
E36                                                                                                                                  24411938.267    95797668.691        -915.408          36.000  
G01  22227019.654   116803764.763        1959.360          36.000    22227022.952    87223613.113        1462.062          36.000  
G03  24769267.493   130163434.433        3621.685          38.000    24769288.778    97200105.285        2702.327          33.000  
G08  20497608.701   107715645.182         570.398          41.000    20497613.497    80437027.265         425.741          37.000  
G10  22770549.976   119660014.357       -2788.195          41.000    22770553.874    89356513.248       -2080.175          35.000  
G16  23688909.010   124486019.452       -3799.700          37.000  
G21  21156511.452   111178192.665          91.792          39.000  
G22  24222026.040   127287597.337        2025.343          37.000  
G27  20966302.731   110178641.151       -1666.981          40.000    20966306.928    82276295.703       -1243.876          36.000  
G32  23792826.969   125032087.323        1541.784          40.000  
R05  22150223.619   118405640.535       -2502.547          40.000  
R06  20444567.920   109096110.262        1814.859          30.000  
R07  22819143.935   122152664.434        4092.030          41.000  
R11  21730268.648   116119967.559       -3266.838          36.000  
R12  21992438.652   117479660.609         300.774          34.000  
R20  22705896.435   121418632.419       -2318.069          15.000  
R21  20365676.336   108980848.125          19.206          41.000  
R22  21976823.062   117313774.729        1805.752          23.000  
> 2022  5  5 16  0 10.9998694  0 27
C19  22807072.792   118762346.855        2271.324          39.000  
C20  23139496.160   120493335.784        -499.087          42.000  
C24  27007114.764   140633065.549         789.044          23.000  
C26  24916069.264   129744344.028       -1232.031          29.000  
C29  22008539.305   114604150.606        -742.521          41.000  
C30  25454875.157   132550039.599       -2371.984          41.000  
C35  22809832.981   118776702.992        1374.248          39.000  
E02                                                                                                                                  24710801.968    96970474.644       -1805.938          35.000  
E05                                                                                                                                  26898697.519   105556252.345        1835.941          34.000  
E25                                                                                                                                  27922416.213   109573424.0011      -2473.971          32.000  
E36                                                                                                                                  24412170.606    95798583.487        -914.557          36.000  
G01  22226644.614   116801804.294        1960.553          35.000    22226650.610    87222150.142        1463.171          34.000  
G03  24768576.471   130159811.908        3623.223          37.000    24768600.155    97197402.080        2704.238          34.000  
G08  20497499.876   107715074.829         569.777          38.000    20497504.673    80436601.361         424.431          37.000  
G10  22771079.710   119662803.059       -2789.368          40.000    22771084.806    89358594.329       -2081.988          37.000  
G16  23689633.008   124489818.600       -3798.106          40.000  
G21  21156491.066   111178100.441          91.006          38.000  
G22  24221641.107   127285571.814        2026.265          37.000  
G27  20966620.810   110180308.286       -1667.651          39.000    20966625.307    82277539.737       -1244.335          40.000  
G32  23792534.671   125030546.274        1541.622          43.000  
R05  22150689.197   118408129.346       -2505.095          41.000  
R06  20444228.855   109094295.481        1814.788          30.000  
R07  22818379.465   122148572.086        4093.789          41.000  
R11  21730878.426   116123226.043       -3266.314          35.000  
R12  21992380.192   117479347.587         300.733          32.000  
R21  20365674.537   108980838.978          18.143          44.000  
R22  21976481.598   117311951.502        1806.071          21.000  
> 2022  5  5 16  0 11.9998692  0 27
C19  22806576.336   118759762.877        2270.505          42.000  
C20  23139530.636   120493522.889        -498.906          41.000  
C24  27006900.412   140631965.309         788.501          24.000  
C26  24916245.542   129745264.081       -1232.234          32.000  
C29  22008619.949   114604579.854        -740.307          40.000  
C30  25455270.883   132552099.809       -2371.514          39.000  
C35  22809508.306   118775015.416        1376.827          38.000  
E02                                                                                                                                  24711202.191    96972044.576       -1805.616          38.000  
E05                                                                                                                                  26898169.585   105554180.668        1837.284          33.000  
E25                                                                                                                                  27922986.119   109575661.680       -2472.913          34.000  
E36                                                                                                                                  24412344.186    95799262.949        -914.005          38.000  
G01  22226207.517   116799528.238        1961.467          31.000    22226217.710    87220450.658        1465.050          36.000  
G03  24767826.990   130155873.147        3620.794          37.000    24767850.674    97194461.793        2705.018          36.000  
G08  20497331.393   107714189.603         570.271          40.000    20497336.789    80435940.707         425.772          38.000  
G10  22771549.784   119665277.049       -2787.755          43.000    22771555.780    89360441.623       -2082.726          39.000  
G16  23690294.650   124493301.348       -3799.865          41.000  
G21  21156413.720   111177692.719          93.736          38.000  
G22  24221195.615   127283230.732        2025.493          36.000  
G27  20966876.533   110181659.861       -1666.642          40.000    20966882.529    82278548.510       -1244.368          35.000  
G32  23792181.216   125028690.480        1539.947          45.000  
R05  22151096.915   118410308.136       -2503.403          41.000  
R06  20443829.531   109092160.774        1814.396          29.000  
R07  22817556.834   122144168.362        4091.845          40.000  
R11  21731427.945   116126162.346       -3265.379          41.000  
R12  21992265.072   117478732.681         300.455          33.000  
R21  20365610.981   108980498.224          20.345          42.000  
R22  21976080.776   117309812.408        1806.653          22.000  
> 2022  5  5 16  0 12.9998689  0 27
C19  22806049.600   118757025.061        2268.129          40.000  
C20  23139535.433   120493552.907        -498.437          35.000  
C24  27006658.479   140630707.416         789.700          26.000  
C26  24916393.040   129746028.303       -1232.927          37.000  
C29  22008671.514   114604851.505        -740.795          40.000  
C30  25455635.131   132554001.895       -2370.563          37.000  
C35  22809153.652   118773170.951        1375.675          37.000  
E02                                                                                                                                  24711572.434    96973498.571       -1808.306          35.000  
E05                                                                                                                                  26897611.371   105551990.845        1836.990          30.000  
E25                                                                                                                                  27923526.345   109577782.402       -2474.356          32.000  
E36                                                                                                                                  24412486.287    95799823.603        -913.246          36.000  
G01  22225742.838   116797094.501        1960.345          35.000    22225754.530    87218633.405        1463.347          37.000  
G03  24767049.628   130151781.898        3617.904          40.000    24767071.513    97191404.761        2702.181          36.000  
G08  20497131.131   107713146.854         569.827          41.000    20497138.326    80435162.389         425.371          39.000  
G10  22771989.280   119667590.311       -2785.224          41.000    22771996.175    89362170.229       -2079.845          40.000  
G16  23690927.512   124496630.181       -3803.161          39.000  
G21  21156306.094   111177127.728          91.951          37.000  
G22  24220721.044   127280732.747        2025.309          34.000  
G27  20967105.875   110182853.676       -1666.472          40.000    20967110.072    82279439.713       -1244.631          39.000  
G32  23791797.481   125026676.666        1540.734          41.000  
R05  22151474.353   118412326.171       -2501.080          42.000  
R06  20443398.730   109089866.891        1813.574          29.000  
R07  22816699.128   122139577.646        4089.053          41.000  
R11  21731950.184   116128953.504       -3267.800          40.000  
R12  21992116.974   117477942.308         299.272          33.000  
R21  20365518.645   108980004.877          21.583          42.000  
R22  21975658.968   117307560.550        1806.602          23.000  
> 2022  5  5 16  0 13.9998689  0 27
C19  22805615.201   118754757.208        2267.664          41.000  
C20  23139630.167   120494051.451        -498.909          36.000  
C24  27006505.585   140629916.712         791.520          18.000  
C26  24916630.476   129747261.703       -1234.014          36.000  
C29  22008814.515   114605591.890        -740.605          40.000  
C30  25456090.215   132556372.334       -2370.615          39.000  
C35  22808890.734   118771795.337        1375.540          37.000  
E02                                                                                                                                  24712033.815    96975307.404       -1809.262          38.000  
E05                                                                                                                                  26897143.395   105550154.734        1834.594          31.000  
E25                                                                                                                                  27924158.008   109580258.275       -2477.033          33.000  
E36                                                                                                                                  24412719.226    95800736.120        -913.421          37.000  
G01  22225370.796   116795134.909        1958.568          35.000    22225381.588    87217170.651        1462.095          34.000  
G03  24766361.904   130148164.267        3617.922          41.000    24766383.489    97188702.736        2702.317          38.000  
G08  20497023.506   107712576.946         569.820          39.000    20497029.802    80434736.416         425.472          39.000  
G10  22772518.713   119670376.234       -2786.720          42.000    22772526.508    89364250.196       -2080.775          41.000  
G16  23691651.511   124500433.163       -3802.273          39.000  
G21  21156289.605   111177035.349          92.251          36.000  
G22  24220335.511   127278707.317        2025.723          34.000  
G27  20967423.954   110184520.490       -1667.289          41.000    20967428.152    82280684.368       -1245.446          39.000  
G32  23791504.284   125025135.751        1540.582          40.000  
R05  22151946.826   118414851.815       -2502.815          41.000  
R06  20443060.564   109088053.713        1812.719          27.000  
R07  22815931.959   122135470.847        4088.783          42.000  
R11  21732573.153   116132282.289       -3270.624          40.000  
R12  21992060.613   117477640.397         298.521          35.000  
R21  20365514.748   108979983.908          20.951          40.000  
R22  21975314.506   117305721.474        1807.052          23.000  
> 2022  5  5 16  0 14.9998687  0 26
C19  22805119.644   118752176.073        2269.286          42.000  
C20  23139666.442   120494238.745        -500.580          39.000  
C26  24916808.253   129748182.521       -1232.024          36.000  
C29  22008899.356   114606021.813        -743.242          41.000  
C30  25456486.241   132558432.193       -2373.759          40.000  
C35  22808566.658   118770106.680        1376.834          35.000  
E02                                                                                                                                  24712434.937    96976880.384       -1807.139          39.000  
E05                                                                                                                                  26896616.660   105548085.256        1834.307          34.000  
E25                                                                                                                                  27924729.412   109582499.145       -2475.386          34.000  
E36                                                                                                                                  24412892.206    95801415.440        -915.017          38.000  
G01  22224938.795   116792860.806        1960.209          30.000    22224948.988    87215473.076        1462.993          36.000  
G03  24765611.824   130144228.725        3622.886          37.000    24765634.608    97185763.560        2705.711          38.000  
G08  20496855.322   107711692.588         567.961          38.000    20496861.318    80434076.440         423.715          38.000  
G10  22772991.486   119672849.657       -2790.333          42.000    22772996.882    89366096.925       -2083.819          39.000  
G16  23692313.752   124503918.340       -3799.651          40.000  
G21  21156212.859   111176628.153          91.411          35.000  
G22  24219890.619   127276366.624        2025.522          31.000  
G27  20967679.677   110185873.354       -1668.942          41.000    20967684.474    82281694.517       -1245.499          36.000  
G32  23791152.628   125023281.243        1538.825          43.000  
R05  22152353.944   118417027.522       -2507.830          43.000  
R06  20442658.842   109085921.515        1811.237          28.000  
R07  22815110.228   122131071.638        4093.124          40.000  
R11  21733122.972   116135220.497       -3267.198          41.000  
R12  21991945.493   117477025.692         298.140          36.000  
R21  20365447.894   108979625.557          18.446          41.000  
R22  21974918.480   117303607.459        1806.913          24.000  
> 2022  5  5 16  0 15.9998687  0 26
C19  22804683.146   118749904.827        2271.079          41.000  
C20  23139762.975   120494739.979        -501.972          41.000  
C26  24917042.690   129749415.129       -1233.373          32.000  
C29  22009040.858   114606764.970        -742.153          40.000  
C30  25456942.226   132560806.152       -2373.661          36.000  
C35  22808302.841   118768731.133        1375.387          35.000  
E02                                                                                                                                  24712894.219    96978685.996       -1806.018          37.000  
E05                                                                                                                                  26896148.384   105546250.166        1836.338          32.000  
E25                                                                                                                                  27925359.876   109584973.003       -2473.742          33.000  
E36                                                                                                                                  24413125.445    95802331.007        -915.181          37.000  
G01  22224565.553   116790900.412        1960.474          30.000    22224576.046    87214009.412        1463.746          30.000  
G03  24764923.500   130140603.639        3624.827          38.000    24764944.785    97183056.972        2706.625          40.000  
G08  20496747.697   107711124.989         567.649          40.000    20496753.393    80433652.635         424.306          39.000  
G10  22773522.718   119675641.208       -2791.678          42.000    22773527.515    89368181.483       -2083.925          37.000  
G16  23693038.051   124507715.820       -3797.837          40.000  
G21  21156195.171   111176537.650          90.639          36.000  
G22  24219505.086   127274341.176        2025.414          34.000  
G27  20967996.558   110187541.973       -1668.369          41.000    20968002.254    82282939.829       -1245.181          38.000  
G32  23790858.232   125021742.113        1539.141          40.000  
R05  22152826.118   118419551.898       -2508.542          42.000  
R06  20442319.777   109084110.353        1810.985          29.000  
R07  22814346.956   122126986.150        4094.326          42.000  
R11  21733737.846   116138505.695       -3265.549          40.000  
R12  21991890.331   117476731.200         296.737          36.000  
R21  20365442.797   108979598.423          17.730          41.000  
R22  21974583.612   117301820.081        1806.007          25.000  
> 2022  5  5 16  0 16.9998684  0 26
C19  22804156.111   118747164.729        2271.236          40.000  
C20  23139771.370   120494772.029        -497.431          40.000  
C26  24917189.289   129750180.794       -1234.675          31.000  
C29  22009093.022   114607037.699        -738.806          41.000  
C30  25457307.073   132562710.218       -2370.949          37.000  
C35  22807949.085   118766887.862        1374.750          35.000  
E02                                                                                                                                  24713264.763    96980139.474       -1806.481          36.000  
E05                                                                                                                                  26895589.571   105544060.505        1837.941          30.000  
E25                                                                                                                                  27925900.102   109587093.139       -2472.253          37.000  
E36                                                                                                                                  24413268.446    95802892.594        -912.679          37.000  
G01  22224102.974   116788467.779        1959.165          33.000    22224113.167    87212193.032        1462.858          35.000  
G03  24764142.541   130136508.087        3620.843          37.000    24764165.325    97179998.049        2703.571          40.000  
G08  20496550.733   107710084.638         569.956          39.000    20496555.530    80432875.231         425.853          39.000  
G10  22773962.214   119677958.207       -2786.920          42.000    22773968.210    89369911.470       -2080.465          36.000  
G16  23693667.915   124511040.274       -3796.444          40.000  
G21  21156086.646   111175973.794          91.505          34.000  
G22  24219030.214   127271842.144        2027.697          35.000  
G27  20968223.501   110188736.023       -1664.830          40.000    20968229.497    82283831.309       -1244.046          38.000  
G32  23790473.298   125019727.880        1542.744          40.000  
R05  22153201.158   118421556.294       -2504.243          41.000  
R06  20441891.673   109081819.010        1812.347          29.000  
R07  22813494.646   122122423.860        4093.159          43.000  
R11  21734256.487   116141277.945       -3270.114          38.000  
R12  21991744.932   117475954.838         294.786          35.000  
R21  20365350.461   108979104.823          20.645          42.000  
R22  21974154.310   117299528.400        1804.802          25.000  
> 2022  5  5 16  0 17.9998684  0 26
C19  22803721.712   118744895.674        2267.583          39.000  
C20  23139867.303   120495270.710        -500.554          42.000  
C26  24917426.724   129751415.431       -1234.668          33.000  
C29  22009235.124   114607776.972        -740.704          39.000  
C30  25457760.959   132565080.388       -2369.961          36.000  
C35  22807685.268   118765512.336        1376.258          37.000  
E02                                                                                                                                  24713725.244    96981946.856       -1807.776          36.000  
E05                                                                                                                                  26895120.995   105542222.419        1838.366          28.000  
E25                                                                                                                                  27926529.966   109589566.415       -2474.183          34.000  
E36                                                                                                                                  24413500.785    95803803.930        -912.358          36.000  
G01  22223730.332   116786508.383        1959.315          34.000    22223740.824    87210730.209        1463.073          35.000  
G03  24763453.018   130132889.155        3619.038          38.000    24763477.002    97177295.833        2702.677          39.000  
G08  20496441.609   107709514.566         569.101          38.000    20496446.405    80432448.812         426.308          34.000  
G10  22774493.746   119680744.349       -2786.728          42.000    22774498.543    89371991.251       -2080.940          35.000  
G16  23694388.916   124514838.731       -3799.817          36.000  
G21  21156068.059   111175881.771          93.219          36.000  
G22  24218644.681   127269814.419        2027.557          38.000  
G27  20968539.782   110190402.428       -1667.146          42.000    20968546.377    82285076.118       -1245.921          36.000  
G32  23790178.602   125018186.807        1539.756          38.000  
R05  22153666.736   118424045.462       -2504.125          42.000  
R06  20441555.006   109080007.020        1811.484          28.000  
R07  22812729.276   122118326.190        4090.516          41.000  
R11  21734869.263   116144551.669       -3270.065          38.000  
R12  21991689.770   117475659.435         295.749          33.000  
R21  20365345.964   108979080.307          21.982          42.000  
R22  21973821.840   117297754.054        1807.272          22.000  
> 2022  5  5 16  0 18.9998682  0 26
C19  22803227.054   118742315.382        2269.217          39.000  
C20  23139904.178   120495459.170        -499.955          41.000  
C26  24917603.602   129752338.092       -1234.954          28.000  
C29  22009318.466   114608205.465        -741.043          42.000  
C30  25458155.186   132567138.058       -2370.345          37.000  
C35  22807360.593   118763823.702        1376.171          37.000  
E02                                                                                                                                  24714126.067    96983520.250       -1808.953          35.000  
E05                                                                                                                                  26894593.061   105540149.465        1837.176          32.000  
E25                                                                                                                                  27927100.770   109591805.866       -2475.054          35.000  
E36                                                                                                                                  24413673.466    95804482.158        -913.721          35.000  
G01  22223298.331   116784234.721        1958.469          32.000    22223307.624    87209032.240        1462.341          36.000  
G03  24762702.038   130128954.111        3619.579          35.000    24762727.520    97174357.860        2702.460          38.000  
G08  20496274.025   107708630.256         568.406          38.000    20496277.922    80431788.151         425.058          38.000  
G10  22774963.521   119683216.414       -2787.610          41.000    22774969.816    89373837.940       -2081.814          36.000  
G16  23695056.853   124518324.211       -3800.696          40.000  
G21  21155989.513   111175473.626          92.618          35.000  
G22  24218199.190   127267472.474        2026.347          38.000  
G27  20968797.903   110191754.782       -1667.964          40.000    20968804.199    82286086.318       -1244.942          37.000  
G32  23789827.545   125016331.694        1541.233          39.000  
R05  22154078.351   118426246.271       -2506.030          40.000  
R06  20441154.183   109077875.832        1811.040          28.000  
R07  22811901.849   122113897.277        4091.506          44.000  
R11  21735417.284   116147479.907       -3271.124          42.000  
R12  21991574.050   117475042.189         295.388          33.000  
R21  20365284.507   108978751.893          20.974          42.000  
R22  21973424.615   117295632.883        1801.869          24.000  
> 2022  5  5 16  0 19.9998682  0 25
C19  22802790.557   118740044.930        2271.321          39.000  
C20  23140000.711   120495959.534        -500.844          40.000  
C26  24917841.038   129753573.700       -1236.157          31.000  
C29  22009459.668   114608946.636        -741.380          40.000  
C30  25458609.371   132569507.241       -2368.068          36.000  
C35  22807095.876   118762449.482        1373.662          39.000  
E02                                                                                                                                  24714587.447    96985328.804       -1808.264          34.000  
E05                                                                                                                                  26894125.085   105538312.930        1837.654          27.000  
E25                                                                                                                                  27927730.934   109594280.023       -2472.938          35.000  
E36                                                                                                                                  24413906.104    95805395.044        -913.375          37.000  
G01  22222926.588   116782276.993        1956.378          36.000    22222934.083    87207569.797        1462.579          31.000  
G03  24762013.115   130125333.436        3622.436          37.000    24762038.298    97171654.099        2704.442          39.000  
G08  20496164.001   107708062.574         567.080          39.000    20496169.697    80431363.859         423.657          40.000  
G10  22775492.655   119686004.800       -2788.803          40.000    22775499.550    89375920.179       -2082.774          35.000  
G16  23695781.452   124522123.065       -3796.967          39.000  
G21  21155970.926   111175381.842          90.830          37.000  
G22  24217811.558   127265443.816        2029.569          39.000  
G27  20969115.683   110193422.424       -1666.879          40.000    20969121.679    82287330.823       -1245.334          39.000  
G32  23789532.549   125014789.808        1542.067          39.000  
R05  22154551.423   118428774.890       -2508.224          40.000  
R06  20440816.317   109076065.443        1811.581          29.000  
R07  22811143.374   122109837.045        4096.320          43.000  
R11  21736025.862   116150732.257       -3271.425          34.000  
R12  21991520.387   117474754.590         292.098          31.000  
R21  20365280.010   108978727.985          17.289          41.000  
> 2022  5  5 16  0 20.9998679  0 26
C19  22802263.521   118737304.982        2270.345          40.000  
C20  23140007.006   120495991.659        -501.412          40.000  
C26  24917987.336   129754341.986       -1237.181          26.000  
C29  22009511.532   114609218.386        -740.782          40.000  
C30  25458973.919   132571406.627       -2367.604          39.000  
C35  22806740.622   118760606.508        1373.620          39.000  
E02                                                                                                                                  24714958.290    96986783.649       -1807.905          33.000  
E05                                                                                                                                  26893566.271   105536122.135        1837.217          29.000  
E09                                                                                                                                  26283539.884   103142199.4451        787.776          32.000  
E36                                                                                                                                  24414048.506    95805954.749        -912.256          35.000  
G01  22222463.709   116779847.832        1956.807          32.000    22222471.503    87205754.854        1462.096          33.000  
G03  24761237.252   130121238.597        3621.528          38.000    24761259.437    97168596.074        2705.160          39.000  
G08  20495965.538   107707021.898         567.227          40.000    20495971.834    80430586.257         423.055          39.000  
G10  22775934.848   119688320.438       -2788.154          40.000    22775939.945    89377649.733       -2082.309          36.000  
G16  23696415.813   124525447.706       -3798.981          37.000  
G21  21155863.301   111174818.179          89.850          39.000  
G22  24217334.588   127262941.757        2028.728          41.000  
G27  20969343.226   110194615.481       -1667.378          41.000    20969348.622    82288222.024       -1244.558          37.000  
G32  23789150.314   125012775.015        1541.333          39.000  
R05  22154928.562   118430791.192       -2508.019          40.000  
R06  20440384.316   109073772.929        1813.084          28.000  
R07  22810287.467   122105255.230        4094.110          37.000  
R11  21736546.902   116153516.436       -3270.731          33.000  
R12  21991376.787   117473988.424         291.521          33.000  
R21  20365183.777   108978212.262          19.533          42.000  
R22  21972658.945   117291545.7241       1804.501          24.000  
> 2022  5  5 16  0 21.9998679  0 25
C19  22801826.124   118735034.276        2272.191          39.000  
C20  23140102.940   120496492.989        -501.008          40.000  
C26  24918225.072   129755579.846       -1238.212          32.000  
C29  22009653.334   114609959.437        -740.735          40.000  
C30  25459427.805   132573773.819       -2367.351          38.000  
C35  22806478.304   118759233.500        1374.316          39.000  
E02                                                                                                                                  24715419.071    96988591.603       -1806.896          34.000  
E05                                                                                                                                  26893098.295   105534283.340        1840.089          34.000  
E09                                                                                                                                  26283339.623   103141411.209         789.220          32.000  
E36                                                                                                                                  24414281.145    95806868.065        -913.765          36.000  
G01  22222092.266   116777891.454        1956.517          34.000    22222099.760    87204293.720        1460.962          35.000  
G03  24760549.228   130117615.819        3623.583          40.000    24760570.214    97165890.795        2705.988          39.000  
G08  20495860.011   107706455.143         567.222          41.000    20495864.208    80430163.262         423.860          37.000  
G10  22776466.380   119691109.431       -2789.904          41.000    22776470.877    89379732.907       -2083.816          35.000  
G16  23697136.214   124529244.793       -3795.892          38.000  
G21  21155851.609   111174728.851          90.405          38.000  
G22  24216949.055   127260911.676        2029.838          39.000  
G27  20969661.306   110196282.656       -1666.795          41.000    20969666.102    82289466.652       -1244.825          36.000  
G32  23788856.817   125011232.590        1542.213          40.000  
R05  22155395.339   118433285.704       -2509.774          40.000  
R06  20440046.150   109071960.638        1812.249          30.000  
R07  22809519.998   122101147.021        4096.072          42.000  
R11  21737156.380   116156773.234       -3270.297          34.000  
R12  21991326.122   117473717.306         289.312          37.000  
R21  20365182.278   108978204.746          18.314          42.000  
> 2022  5  5 16  0 22.9998676  0 26
C19  22801301.787   118732296.909        2267.943          40.000  
C20  23140109.236   120496526.565        -502.292          39.000  
C26  24918373.469   129756349.033       -1237.420          31.000  
C29  22009706.997   114610231.519        -740.866          41.000  
C30  25459796.550   132575675.434       -2370.412          38.000  
C35  22806123.050   118757388.655        1375.749          41.000  
E02                                                                                                                                  24715789.615    96990046.411       -1808.664          35.000  
E05                                                                                                                                  26892539.782   105532091.218        1838.253          34.000  
E09                                                                                                                                  26283049.124   103140270.231         787.351          32.000  
E36                                                                                                                                  24414423.546    95807428.323        -912.797          35.000  
G01  22221630.585   116775461.600        1957.774          35.000    22221637.480    87202479.113        1461.757          33.000  
G03  24759769.168   130113521.988        3620.019          41.000    24759791.353    97162833.301        2703.180          36.000  
G08  20495662.148   107705414.310         567.501          41.000    20495666.645    80429385.924         423.665          39.000  
G10  22776907.975   119693425.739       -2788.503          40.000    22776911.872    89381463.495       -2082.931          37.000  
G16  23697767.877   124532570.971       -3800.004          40.000  
G21  21155746.082   111174164.756          90.332          37.000  
G22  24216472.685   127258411.572        2027.244          41.000  
G27  20969887.649   110197478.133       -1668.752          40.000    20969893.645    82290359.270       -1246.996          36.000  
G32  23788474.582   125009219.909        1540.118          41.000  
R05  22155774.576   118435312.784       -2508.453          39.000  
R06  20439615.349   109069670.235        1808.917          29.000  
R07  22808663.191   122096560.112        4092.235          42.000  
R11  21737677.119   116159555.884       -3270.279          36.000  
R12  21991185.519   117472966.547         291.046          38.000  
R21  20365086.944   108977694.196          20.242          41.000  
R22  21971898.071   117287485.0021       1806.839          27.000  
> 2022  5  5 16  0 23.9998674  0 26
C19  22800805.931   118729713.908        2272.012          40.000  
C20  23140145.511   120496716.176        -503.595          41.000  
C26  24918550.646   129757275.403       -1239.564          29.000  
C29  22009788.840   114610660.278        -742.525          41.000  
C30  25460192.575   132577731.634       -2369.572          38.000  
C35  22805800.773   118755702.032        1373.776          39.000  
E02                                                                                                                                  24716190.437    96991619.464       -1807.917          35.000  
E05                                                                                                                                  26892011.548   105530017.051        1839.559          35.000  
E09                                                                                                                                  26282789.204   103139248.273         786.432          31.000  
E36                                                                                                                                  24414595.927    95808105.583        -912.373          36.000  
G01  22221198.584   116773189.167        1957.095          34.000    22221205.180    87200782.791        1461.305          37.000  
G03  24759019.088   130109584.931        3624.849          42.000    24759041.272    97159893.017        2707.566          37.000  
G08  20495493.065   107704532.357         565.726          42.000    20495498.761    80428727.670         422.686          39.000  
G10  22777377.150   119695899.703       -2791.079          42.000    22777382.546    89383310.880       -2082.639          36.000  
G16  23698431.018   124536053.037       -3795.097          39.000  
G21  21155668.735   111173759.815          89.546          37.000  
G22  24216025.694   127256066.367        2029.331          40.000  
G27  20970143.372   110198830.297       -1667.670          42.000    20970150.867    82291370.126       -1246.731          35.000  
G32  23788119.927   125007362.763        1541.024          40.000  
R05  22156181.695   118437489.697       -2512.462          40.000  
R06  20439219.623   109067541.556        1808.182          30.000  
R07  22807836.963   122092137.030        4096.968          43.000  
R11  21738229.937   116162510.629       -3270.935          34.000  
R12  21991072.497   117472362.272         288.403          38.000  
R21  20365020.690   108977340.216          17.742          42.000  
R22  21971500.846   117285364.446        1804.392          28.000  
> 2022  5  5 16  0 24.9998674  0 26
C19  22800370.332   118727443.323        2270.560          41.000  
C20  23140243.243   120497219.077        -501.514          40.000  
C26  24918789.281   129758513.975       -1238.636          31.000  
C29  22009930.642   114611401.999        -740.203          41.000  
C30  25460647.061   132580100.039       -2366.976          38.000  
C35  22805536.955   118754328.520        1374.725          40.000  
E02                                                                                                                                  24716650.619    96993426.969       -1808.214          36.000  
E05                                                                                                                                  26891542.373   105528177.631        1838.789          31.000  
E09                                                                                                                                  26282588.942   103138462.094         786.340          32.000  
E36                                                                                                                                  24414829.165    95809018.643        -912.937          36.000  
G01  22220824.743   116771232.324        1956.328          34.000    22220832.838    87199321.365        1460.734          35.000  
G03  24758329.565   130105960.596        3623.105          42.000    24758352.050    97157186.985        2704.183          37.000  
G08  20495386.039   107703966.203         566.870          42.000    20495391.136    80428304.922         423.344          39.000  
G10  22777906.883   119698690.603       -2789.450          40.000    22777914.078    89385393.948       -2083.332          37.000  
G16  23699153.517   124539848.915       -3797.134          41.000  
G21  21155648.949   111173669.447          91.132          38.000  
G22  24215640.461   127254036.100        2030.543          38.000  
G27  20970463.850   110200498.087       -1667.053          42.000    20970468.047    82292615.987       -1245.319          37.000  
G32  23787826.131   125005821.611        1541.948          41.000    23787837.223    93348591.4201       1150.725          31.000  
R05  22156657.165   118440031.069       -2510.678          38.000  
R06  20438885.354   109065733.022        1808.810          30.000  
R07  22807073.092   122088048.550        4095.777          44.000  
R11  21738840.614   116165774.036       -3272.301          32.000  
R12  21991022.732   117472097.109         287.932          37.000  
R21  20365021.589   108977345.121          18.996          41.000  
R22  21971162.681   117283558.820        1803.482          28.000  
> 2022  5  5 16  0 25.9998671  0 26
C19  22799844.196   118724705.768        2267.212          39.000  
C20  23140249.239   120497253.934        -504.712          42.000  
C26  24918937.978   129759284.122       -1238.595          29.000  
C29  22009983.705   114611674.690        -742.398          40.000  
C30  25461011.309   132582000.873       -2369.977          37.000  
C35  22805183.200   118752484.231        1375.502          40.000  
E02                                                                                                                                  24717021.162    96994881.513       -1806.950          32.000  
E05                                                                                                                                  26890982.960   105525985.602        1834.898          26.000  
E09                                                                                                                                  26282298.144   103137323.020         785.130          32.000  
E36                                                                                                                                  24414971.867    95809578.756        -912.944          36.000  
G01  22220362.763   116768802.527        1957.733          33.000    22220370.258    87197506.628        1461.930          35.000  
G03  24757549.805   130101865.113        3620.952          43.000    24757572.589    97154128.606        2705.767          33.000  
G08  20495188.476   107702926.473         566.531          42.000    20495192.973    80427528.460         422.889          39.000  
G10  22778349.077   119701008.172       -2790.196          42.000    22778355.673    89387124.718       -2083.679          36.000  
G16  23699785.780   124543174.478       -3800.475          40.000  
G21  21155541.623   111173105.303          90.519          38.000  
G22  24215164.091   127251535.016        2026.595          36.000  
G27  20970689.893   110201693.387       -1669.794          40.000    20970695.290    82293508.376       -1245.468          35.000  
G32  23787443.595   125003808.752        1538.851          39.000    23787453.788    93347088.434        1148.975          32.000  
R05  22157037.902   118442066.009       -2511.932          40.000  
R06  20438459.649   109063444.942        1806.786          31.000  
R07  22806220.482   122083484.303        4092.388          42.000  
R11  21739363.452   116168567.381       -3271.906          35.000  
R12  21990873.435   117471299.373         288.700          37.000  
R21  20364925.955   108976832.604          19.471          42.000  
R22  21970730.080   117281250.109        1806.322          27.000  
> 2022  5  5 16  0 26.9998671  0 26
C19  22799407.399   118722438.948        2267.778          38.000  
C20  23140347.271   120497758.442        -504.563          42.000  
C26  24919176.313   129760522.625       -1239.032          28.000  
C29  22010127.606   114612416.470        -742.124          40.000  
C30  25461466.394   132584370.561       -2369.114          36.000  
C35  22804918.184   118751108.274        1374.060          40.000  
E02                                                                                                                                  24717481.943    96996690.361       -1809.625          31.000  
E05                                                                                                                                  26890515.284   105524151.695        1833.030          26.000  
E09                                                                                                                                  26282098.482   103136538.215         784.404          33.000  
E36                                                                                                                                  24415204.805    95810491.306        -912.573          35.000  
G01  22219990.721   116766844.874        1957.582          34.000    22219997.616    87196044.896        1461.205          32.000  
G03  24756862.081   130098245.181        3620.197          42.000    24756883.066    97151424.106        2703.560          34.000  
G08  20495079.352   107702360.456         565.672          41.000    20495085.348    80427105.807         421.941          39.000  
G10  22778880.609   119703798.148       -2789.885          42.000    22778887.205    89389208.379       -2083.071          37.000  
G16  23700509.778   124546975.420       -3800.423          39.000  
G21  21155523.336   111173014.772          90.020          37.000  
G22  24214777.958   127249509.176        2027.788          38.000  
G27  20971005.275   110203363.986       -1670.404          40.000    20971012.770    82294754.792       -1246.803          37.000  
G32  23787152.797   125002270.121        1539.625          40.000    23787161.191    93345939.597        1148.724          34.000  
R05  22157506.477   118444571.352       -2511.813          40.000  
R06  20438123.581   109061639.094        1805.525          30.000  
R07  22805456.911   122079396.698        4092.798          42.000  
R11  21739978.026   116171851.426       -3274.086          36.000  
R12  21990815.875   117470992.164         286.247          38.000  
R21  20364923.857   108976821.761          18.849          42.000  
R22  21970389.816   117279433.370        1805.053          27.000  
> 2022  5  5 16  0 27.9998669  0 27
C19  22798913.041   118719857.883        2268.870          39.000  
C20  23140383.546   120497950.522        -503.661          42.000  
C26  24919355.289   129761449.720       -1239.804          26.000  
C29  22010209.149   114612846.146        -740.895          39.000  
C30  25461861.220   132586426.834       -2368.208          36.000  
C32  26594512.802   138484598.4091      -2895.517          22.000  
C35  22804593.508   118749421.879        1374.780          40.000  
E02                                                                                                                                  24717883.665    96998264.882       -1809.842          35.000  
E05                                                                                                                                  26889987.949   105522081.064        1837.323          32.000  
E09                                                                                                                                  26281839.161   103135518.573         784.123          32.000  
E36                                                                                                                                  24415377.186    95811168.750        -912.866          35.000  
G01  22219556.021   116764572.621        1956.801          31.000    22219565.615    87194349.068        1459.927          33.000  
G03  24756112.300   130094308.550        3622.007          42.000    24756133.885    97148484.651        2704.706          35.000  
G08  20494913.267   107701479.765         565.680          41.000    20494917.464    80426448.320         422.329          39.000  
G10  22779350.983   119706273.590       -2790.613          42.000    22779357.579    89391056.199       -2083.592          35.000  
G16  23701173.819   124550459.015       -3798.965          37.000  
G21  21155444.790   111172609.722          89.956          38.000  
G22  24214332.466   127247165.237        2029.273          40.000  
G27  20971264.296   110204718.108       -1668.633          41.000    20971270.891    82295766.204       -1246.935          36.000  
G32  23786797.843   125000415.214        1540.238          39.000    23786808.635    93344555.003        1150.109          33.000  
R05  22157914.795   118446754.057       -2513.174          40.000  
R06  20437728.755   109059514.618        1804.545          30.000  
R07  22804627.385   122074956.664        4094.646          43.000  
R11  21740531.743   116174810.663       -3275.423          32.000  
R12  21990707.650   117470413.092         285.703          36.000  
R21  20364860.900   108976484.849          18.202          43.000  
R22  21969995.589   117277328.567        1805.503          25.000  
> 2022  5  5 16  0 28.9998669  0 27
C19  22798477.742   118717589.188        2269.063          39.000  
C20  23140479.479   120498454.023        -504.417          41.000  
C26  24919593.624   129762690.128       -1240.789          29.000  
C29  22010351.551   114613586.437        -741.196          39.000  
C30  25462315.406   132588794.157       -2368.352          38.000  
C32  26595069.516   138487493.241       -2895.511          24.000  
C35  22804329.091   118748048.025        1373.611          40.000  
E02                                                                                                                                  24718345.046    97000074.836       -1809.929          35.000  
E05                                                                                                                                  26889519.073   105520242.739        1839.536          34.000  
E09                                                                                                                                  26281638.900   103134733.594         785.683          33.000  
E36                                                                                                                                  24415610.125    95812080.889        -911.639          36.000  
G01  22219183.379   116762616.709        1954.888          32.000    22219193.872    87192889.469        1459.435          33.000  
G03  24755421.578   130090688.164        3620.737          40.000    24755444.962    97145780.572        2703.902          34.000  
G08  20494804.142   107700914.271         565.022          40.000    20494809.838    80426026.048         422.187          38.000  
G10  22779883.715   119709063.303       -2791.000          42.000    22779888.212    89393139.932       -2083.988          36.000  
G16  23701895.119   124554257.607       -3797.414          40.000  
G21  21155430.400   111172520.512          88.949          39.000  
G22  24213946.334   127245135.509        2029.574          41.000  
G27  20971581.776   110206386.495       -1669.145          41.000    20971588.671    82297012.194       -1246.121          37.000  
G32  23786504.046   124998873.695        1541.016          39.000    23786514.838    93343404.617        1150.603          30.000  
R05  22158390.266   118449295.609       -2512.197          39.000  
R06  20437393.887   109057709.719        1805.091          29.000  
R07  22803861.115   122070854.288        4094.872          39.000  
R11  21741144.219   116178082.917       -3276.139          34.000  
R12  21990654.587   117470130.357         283.365          38.000  
R21  20364858.202   108976470.836          18.248          42.000  
R22  21969657.423   117275523.492        1803.820          26.000  
> 2022  5  5 16  0 29.9998666  0 27
C19  22797951.607   118714852.832        2265.745          41.000  
C20  23140486.375   120498490.542        -505.023          41.000  
C26  24919742.321   129763462.247       -1239.928          29.000  
C29  22010403.715   114613859.398        -741.778          39.000  
C30  25462680.553   132590694.682       -2368.557          40.000  
C32  26595538.092   138489920.513       -2895.798          26.000  
C35  22803976.536   118746205.004        1375.789          39.000  
E02                                                                                                                                  24718716.489    97001532.193       -1811.014          32.000  
E05                                                                                                                                  26888959.661   105518050.227        1838.638          33.000  
E09                                                                                                                                  26281348.101   103133595.590         784.989          31.000  
E36                                                                                                                                  24415752.226    95812639.828        -912.606          36.000  
G01  22218721.399   116760188.930        1954.959          32.000    22218731.592    87191076.043        1460.711          31.000  
G03  24754642.118   130086593.782        3620.983          37.000    24754666.101    97142723.154        2704.160          31.000  
G08  20494607.179   107699875.964         565.627          40.000    20494612.875    80425250.741         422.191          39.000  
G10  22780324.410   119711381.331       -2789.574          41.000    22780328.906    89394870.746       -2082.859          34.000  
G16  23702525.883   124557583.327       -3800.595          41.000  
G21  21155322.175   111171957.719          88.977          40.000  
G22  24213468.465   127242634.269        2028.283          40.000  
G27  20971809.319   110207582.966       -1669.660          39.000    20971816.514    82297905.838       -1247.430          39.000  
G32  23786122.110   124996861.269        1539.156          43.000    23786130.804    93341901.673        1149.617          30.000  
R05  22158768.004   118451314.724       -2511.772          41.000  
R06  20436964.584   109055424.682        1804.967          27.000  
R07  22803010.304   122066299.902        4091.510          38.000  
R11  21741670.355   116180895.383       -3276.145          36.000  
R12  21990502.892   117469319.991         285.712          38.000  
R21  20364761.669   108975953.815          19.749          43.000  
R22  21969224.223   117273211.807        1805.647          26.000  
> 2022  5  5 16  0 30.9998666  0 25
C19  22797516.008   118712587.477        2264.831          40.000  
C20  23140583.807   120498995.420        -506.098          41.000  
C26  24919982.155   129764702.743       -1240.814          27.000  
C29  22010546.116   114614600.779        -741.744          42.000  
C30  25463134.439   132593063.574       -2369.666          38.000  
C32  26596094.807   138492816.807       -2895.448          24.000  
C35  22803711.819   118744828.879        1377.258          41.000  
E09                                                                                                                                  26281147.840   103132810.541         783.977          34.000  
E36                                                                                                                                  24415984.566    95813551.979        -911.566          34.000  
G01  22218349.657   116758234.311        1955.459          30.000    22218359.250    87189614.994        1461.613          32.000  
G03  24753954.394   130082973.494        3619.798          34.000    24753977.178    97140019.232        2703.383          33.000  
G08  20494498.654   107699309.943         566.140          40.000    20494504.650    80424828.260         422.818          39.000  
G10  22780854.443   119714170.373       -2789.622          39.000    22780860.438    89396953.545       -2083.243          39.000  
G16  23703250.181   124561384.244       -3800.954          40.000  
G21  21155306.286   111171867.768          91.236          40.000  
G22  24213082.931   127240606.762        2026.433          37.000  
G27  20972125.600   110209253.285       -1671.394          40.000    20972134.893    82299152.537       -1247.048          39.000  
G32  23785829.813   124995322.357        1537.472          41.000    23785837.907    93340751.759        1149.990          33.000  
R05  22159235.680   118453814.544       -2512.035          42.000  
R06  20436628.217   109053620.259        1803.315          29.000  
R07  22802245.834   122062207.704        4090.815          41.000  
R11  21742283.131   116184169.896       -3276.426          37.000  
R12  21990454.025   117469058.989         286.505          36.000  
R21  20364758.071   108975935.022          21.480          42.000  
R22  21968888.755   117271420.175        1808.704          26.000  
> 2022  5  5 16  0 31.9998664  0 25
C19  22797022.550   118710010.250        2265.684          41.000  
C20  23140621.881   120499189.700        -506.649          42.000  
C26  24920160.532   129765630.183       -1238.617          22.000  
C29  22010627.360   114615030.264        -742.040          41.000  
C30  25463529.865   132595121.555       -2370.042          38.000  
C32  26596586.766   138495398.742       -2893.811          16.000  
C35  22803386.544   118743139.534        1375.298          41.000  
E09                                                                                                                                  26280888.519   103131791.315         783.832          31.000  
E36                                                                                                                                  24416156.047    95814228.535        -912.246          34.000  
G01  22217917.056   116755962.693        1957.131          32.000    22217926.949    87187917.982        1462.053          28.000  
G03  24753207.311   130079038.341        3620.170          37.000    24753227.697    97137079.889        2703.615          29.000  
G08  20494331.969   107698428.711         565.234          39.000    20494336.466    80424170.125         421.754          39.000  
G10  22781324.217   119716645.713       -2790.873          40.000    22781332.612    89398801.995       -2083.986          40.000  
G16  23703914.821   124564870.248       -3800.721          41.000  
G21  21155228.640   111171461.571          90.277          39.000  
G22  24212638.339   127238265.486        2026.083          35.000  
G27  20972385.220   110210609.352       -1671.095          41.000    20972392.415    82300165.414       -1248.417          38.000  
G32  23785477.557   124993470.131        1537.448          39.000    23785485.651    93339367.230        1148.838          31.000  
R05  22159646.696   118456012.182       -2513.723          43.000  
R06  20436226.195   109051497.461        1801.814          30.000  
R07  22801421.404   122057794.343        4092.074          42.000  
R11  21742836.847   116187128.421       -3275.796          33.000  
R12  21990343.402   117468468.040         286.451          38.000  
R21  20364694.815   108975596.254          20.140          41.000  
R22  21968489.131   117269287.294        1809.418          26.000  
> 2022  5  5 16  0 32.9998664  0 25
C19  22796586.951   118707742.992        2268.007          41.000  
C20  23140716.915   120499694.729        -504.732          41.000  
C26  24920396.768   129766869.374       -1239.936          25.000  
C29  22010770.061   114615771.125        -741.120          42.000  
C30  25463984.950   132597488.787       -2366.864          38.000  
C32  26597141.082   138498291.106       -2892.499          19.000  
C35  22803123.626   118741765.997        1372.690          41.000  
E09                                                                                                                                  26280688.558   103131006.379         785.478          32.000  
E36                                                                                                                                  24416388.386    95815140.106        -911.529          36.000  
G01  22217544.714   116754006.673        1955.780          31.000    22217554.907    87186457.424        1460.259          33.000  
G03  24752520.487   130075418.235        3620.246          36.000    24752539.374    97134376.774        2703.825          33.000  
G08  20494224.943   107697863.827         564.052          40.000    20494229.740    80423749.220         420.733          39.000  
G10  22781856.049   119719435.850       -2790.729          38.000    22781863.244    89400885.388       -2083.852          37.000  
G16  23704638.220   124568669.278       -3797.660          40.000  
G21  21155211.852   111171372.926          87.863          40.000  
G22  24212253.406   127236238.279        2028.352          38.000  
G27  20972703.300   110212279.196       -1669.467          42.000    20972710.195    82301412.296       -1246.666          39.000  
G32  23785183.160   124991929.817        1540.609          42.000    23785193.053    93338217.227        1151.150          31.000  
R05  22160121.567   118458550.117       -2514.302          38.000  
R06  20435889.228   109049695.391        1802.594          28.000  
R07  22800658.133   122053708.297        4096.296          40.000  
R11  21743452.021   116190415.814       -3276.810          32.000  
R12  21990292.437   117468195.844         281.025          36.000  
R21  20364690.318   108975572.138          17.276          41.000  
R22  21968150.366   117267479.053        1806.346          26.000  
> 2022  5  5 16  0 33.9998664  0 25
C19  22796150.453   118705475.242        2267.046          41.000  
C20  23140813.148   120500199.850        -503.957          41.000  
C26  24920634.804   129768110.448       -1242.298          28.000  
C29  22010913.362   114616512.125        -739.698          42.000  
C30  25464438.836   132599855.513       -2365.261          40.000  
C32  26597701.095   138501184.581       -2893.371          26.000  
C35  22802860.108   118740392.438        1373.499          42.000  
E09                                                                                                                                  26280487.997   103130220.892         786.500          30.000  
E36                                                                                                                                  24416621.025    95816051.897        -911.742          36.000  
G01  22217172.971   116752052.123        1953.735          30.000    22217183.464    87184998.173        1459.549          32.000  
G03  24751831.863   130071797.659        3620.335          38.000    24751850.151    97131672.279        2703.602          32.000  
G08  20494120.016   107697300.052         564.023          40.000    20494122.114    80423328.104         421.831          37.000  
G10  22782385.183   119722226.535       -2790.464          37.000    22782394.476    89402970.027       -2084.358          36.000  
G16  23705360.720   124572467.019       -3798.835          39.000  
G21  21155194.464   111171285.014          88.301          41.000  
G22  24211868.472   127234208.513        2030.803          37.000  
G27  20973021.379   110213948.436       -1668.418          41.000    20973027.975    82302658.855       -1246.104          39.000  
G32  23784889.064   124990388.797        1542.051          41.000    23784900.156    93337066.640        1149.237          31.000  
R05  22160587.744   118461041.796       -2513.355          43.000  
R06  20435550.763   109047892.486        1803.352          29.000  
R07  22799890.364   122049598.572        4094.090          38.000  
R11  21744065.996   116193696.925       -3278.195          35.000  
R12  21990231.579   117467870.105         279.290          38.000  
R21  20364689.719   108975568.427          18.755          41.000  
R22  21967808.003   117265651.596        1804.048          26.000  
> 2022  5  5 16  0 34.9998664  0 24
C19  22795714.855   118703208.962        2265.069          40.000  
C20  23140912.680   120500705.653        -507.168          41.000  
C26  24920874.637   129769353.132       -1242.125          26.000  
C29  22011053.964   114617252.925        -741.260          41.000  
C30  25464894.520   132602222.416       -2368.845          38.000  
C35  22802596.291   118739017.459        1376.426          42.000  
E09                                                                                                                                  26280287.436   103129434.391         785.492          32.000  
E36                                                                                                                                  24416853.964    95816963.415        -911.448          35.000  
G01  22216801.229   116750099.244        1953.813          28.000    22216811.721    87183538.762        1460.541          31.000  
G03  24751142.041   130068177.088        3620.580          38.000    24751161.527    97128968.690        2702.969          31.000  
G08  20494009.992   107696735.763         564.964          40.000    20494014.789    80422906.412         421.105          35.000  
G10                                                                  22782925.709    89405054.108       -2084.225          34.000  
G16  23706082.621   124576266.369       -3801.653          37.000  
G21  21155177.975   111171195.628          90.464          41.000  
G22  24211482.040   127232179.284        2027.994          38.000  
G27  20973339.459   110215618.239       -1671.355          42.000    20973345.455    82303905.700       -1247.465          39.000  
G32  23784597.066   124988848.880        1537.893          43.000    23784606.659    93335917.915        1147.724          26.000  
R05  22161055.421   118463542.438       -2514.175          44.000  
R06  20435209.899   109046089.077        1802.854          29.000  
R07  22799124.994   122045501.533        4091.849          40.000  
R11  21744679.372   116196974.269       -3278.206          36.000  
R12  21990177.617   117467582.019         282.441          39.000  
R21  20364689.419   108975566.702          20.569          42.000  
R22  21967470.137   117263847.437        1805.435          28.000  
> 2022  5  5 16  0 35.9998661  0 24
C19  22795191.118   118700475.102        2267.867          40.000  
C20  23140920.474   120500744.602        -505.584          42.000  
C26  24921023.035   129770126.962       -1242.579          34.000  
C29  22011107.028   114617525.685        -739.571          40.000  
C30  25465259.967   132604122.217       -2366.012          40.000  
C35  22802241.936   118737173.235        1374.493          41.000  
E09                                                                                                                                  26279997.536   103128296.452         784.378          32.000  
E36                                                                                                                                  24416996.365    95817521.493        -910.811          35.000  
G01  22216339.248   116747672.470        1954.534          35.000    22216349.142    87181725.725        1459.380          33.000  
G03  24750363.480   130064084.792        3620.220          35.000    24750382.966    97125912.418        2704.848          30.000  
G08  20493813.028   107695698.769         564.515          41.000    20493817.825    80422132.066         421.311          37.000  
G10  22783358.609   119727335.1971      -2790.708          41.000    22783367.303    89406785.148       -2084.216          37.000  
G16  23706715.782   124579594.536       -3797.445          37.000  
G21  21155070.350   111170633.174          89.505          41.000  
G22  24211007.169   127229678.800        2028.336          34.000  
G27  20973567.301   110216816.947       -1668.995          41.000    20973573.897    82304800.947       -1246.650          38.000  
G32  23784215.430   124986838.466        1540.273          44.000    23784224.124    93334417.410        1146.509          28.000  
R05  22161438.256   118465588.531       -2515.431          42.000  
R06  20434781.195   109043807.242        1801.254          28.000  
R07  22798272.085   122040935.613        4095.413          40.000  
R11  21745205.507   116199786.155       -3278.521          35.000  
R12  21990036.115   117466826.603         279.684          40.000  
R21  20364593.785   108975055.137          19.436          40.000  
R22  21967039.935   117261551.508        1805.637          29.000  
> 2022  5  5 16  0 36.9998659  0 25
C19  22794696.160   118697895.253        2266.704          40.000  
C20  23140956.449   120500937.257        -505.722          42.000  
C26  24921201.711   129771057.328       -1242.958          35.000  
C29  22011189.471   114617953.083        -740.041          41.000  
C30  25465653.595   132606175.785       -2365.775          40.000  
C32  26599224.940   138509084.0541      -2893.544          27.000  
C35  22801917.561   118735486.157        1374.177          41.000  
E09                                                                                                                                  26279737.316   103127276.290         785.200          32.000  
E36                                                                                                                                  24417168.446    95818196.692        -910.240          34.000  
G01  22215907.247   116745402.920        1954.306          36.000    22215916.841    87180031.135        1459.132          38.000  
G03  24749615.798   130060149.162        3620.714          32.000    24749633.485    97122972.697        2704.060          35.000  
G08  20493646.644   107694818.315         564.144          42.000    20493650.241    80421475.038         421.972          39.000  
G10  22783828.983   119729809.529       -2789.709          40.000    22783838.577    89408634.879       -2083.768          35.000  
G16  23707379.822   124583077.698       -3798.345          39.000  
G21  21154991.804   111170228.423          88.522          40.000  
G22  24210562.576   127227334.412        2030.039          38.000  
G27  20973825.123   110218170.453       -1669.894          40.000    20973830.819    82305812.153       -1246.752          35.000  
G32  23783860.776   124984982.026        1540.834          41.000    23783871.269    93333033.152        1149.843          37.000  
R05  22161846.273   118467770.135       -2513.909          39.000  
R06  20434380.673   109041685.450        1801.918          30.000  
R07  22797445.257   122036509.489        4094.307          40.000  
R11  21745759.524   116202746.026       -3278.346          35.000  
R12  21989927.590   117466247.046         278.592          41.000  
R21  20364526.332   108974694.044          19.873          42.000  
R22  21966645.108   117259443.522        1805.927          29.000  
> 2022  5  5 16  0 37.9998659  0 24
C19  22794259.662   118695628.866        2264.848          39.000  
C20  23141052.982   120501443.886        -505.901          38.000  
C26  24921440.046   129772301.071       -1244.201          37.000  
C29  22011332.771   114618693.164        -739.789          38.000  
C30  25466106.581   132608541.824       -2366.656          33.000  
C35  22801653.744   118734112.112        1374.773          39.000  
E09                                                                                                                                  26279536.755   103126490.754         787.026          31.000  
E36                                                                                                                                  24417399.886    95819107.432        -910.777          35.000  
G01  22215535.805   116743449.144        1952.669          39.000    22215545.098    87178572.643        1458.201          37.000  
G03  24748925.675   130056528.346        3619.865          34.000    24748944.862    97120268.815        2703.489          37.000  
G08  20493538.419   107694255.121         563.228          40.000    20493542.316    80421054.404         420.225          35.000  
G10  22784359.316   119732599.108       -2788.101          41.000    22784366.811    89410717.902       -2082.698          36.000  
G16  23708100.224   124586876.446       -3800.605          38.000  
G21  21154976.814   111170139.944          88.468          39.000  
G22  24210176.743   127225303.854        2030.705          40.000  
G27  20974143.203   110219840.788       -1670.383          40.000    20974148.599    82307059.429       -1247.409          35.000  
G32  23783567.579   124983441.532        1540.585          38.000    23783578.371    93331882.211        1150.876          32.000  
R05  22162314.249   118470271.656       -2514.067          40.000  
R06  20434044.006   109039883.743        1801.607          27.000  
R07  22796680.786   122032417.265        4092.421          38.000  
R11  21746373.499   116206026.877       -3279.131          36.000  
R12  21989878.124   117465982.543         278.115          40.000  
R21  20364521.535   108974668.335          20.754          41.000  
R22  21966307.242   117257640.673        1806.378          29.000  
> 2022  5  5 16  0 38.9998656  0 24
C19  22793734.126   118692895.454        2264.473          38.000  
C20  23141060.777   120501480.948        -506.297          40.000  
C26  24921588.743   129773077.399       -1244.975          39.000  
C29  22011383.436   114618963.856        -739.097          39.000  
C30  25466469.930   132610439.819       -2365.972          35.000  
C35  22801299.689   118732267.325        1376.445          38.000  
E09                                                                                                                                  26279245.957   103125350.638         787.023          36.000  
E36                                                                                                                                  24417541.688    95819664.235        -909.106          37.000  
G01  22215077.122   116741023.640        1953.227          41.000    22215083.418    87176761.240        1459.054          38.000  
G03  24748147.414   130052436.675        3617.961          32.000    24748166.601    97117213.316        2701.111          33.000  
G08  20493339.956   107693217.836         564.590          40.000    20493344.753    80420280.775         421.351          36.000  
G10  22784801.810   119734914.515       -2787.736          39.000    22784807.206    89412446.732       -2081.478          38.000  
G16  23708729.788   124590203.380       -3799.692          35.000  
G21  21154870.088   111169578.108          89.415          39.000  
G22  24209693.778   127222801.291        2028.506          37.000  
G27  20974371.645   110221038.068       -1669.826          39.000    20974376.142    82307953.497       -1246.973          37.000  
G32  23783184.444   124981427.953        1540.851          34.000    23783195.536    93330377.972        1150.555          36.000  
R05  22162696.185   118472313.581       -2512.860          40.000  
R06  20433611.705   109037602.618        1800.496          28.000  
R07  22795829.076   122027858.467        4092.119          37.000  
R11  21746897.536   116208826.925       -3281.143          35.000  
R12  21989733.324   117465208.903         279.325          40.000  
R21  20364431.897   108974189.007          21.937          41.000  
R22  21965878.239   117255349.895        1806.339          28.000  
> 2022  5  5 16  0 39.9998656  0 25
C19  22793300.626   118690631.819        2262.957          35.000  
C20  23141160.608   120501989.121        -510.036          43.000  
C26  24921827.378   129774319.445       -1241.152          38.000  
C29  22011525.238   114619704.269        -741.624          41.000  
C30  25466923.516   132612806.428       -2367.673          39.000  
C32  26600798.850   138517292.2151      -2892.311          28.000  
C35  22801036.171   118730890.147        1378.604          42.000  
E09                                                                                                                                  26279046.595   103124565.172         783.317          39.000  
E36                                                                                                                                  24417773.727    95820573.719        -910.485          37.000  
G01  22214705.679   116739068.192        1956.702          40.000    22214711.076    87175300.667        1461.636          37.000  
G03  24747459.390   130048818.329        3618.820          30.000    24747477.378    97114511.736        2701.734          26.000  
G08  20493234.129   107692653.283         564.496          43.000    20493237.727    80419858.958         421.640          38.000  
G10                                                                  22785335.441    89414528.087       -2084.123          31.000  
G16  23709452.288   124594003.939       -3800.949          31.000  
G21  21154850.602   111169487.114          91.917          40.000  
G22  24209307.045   127220774.331        2026.421          42.000  
G27  20974688.825   110222709.847       -1673.602          40.000    20974694.221    82309201.600       -1249.071          37.000  
G32  23782891.847   124979888.288        1537.385          41.000    23782902.939    93329229.264        1147.467          38.000  
R05  22163170.756   118474849.774       -2518.678          41.000  
R06  20433268.143   109035803.164        1797.670          29.000  
R07  22795068.203   122023785.536        4091.716          31.000  
R11  21747510.012   116212100.017       -3279.837          37.000  
R12  21989680.561   117464927.054         281.559          43.000  
R21  20364429.499   108974176.020          20.811          40.000  
R22  21965535.576   117253521.514        1809.401          31.000  
> 2022  5  5 16  0 40.9998653  0 23
C19  22792775.690   118687899.950        2263.480          37.000  
C20  23141166.904   120502031.186        -510.719          41.000  
C26  24921974.576   129775093.093       -1241.980          23.000  
C29  22011578.901   114619977.677        -741.923          42.000  
C30  25467288.363   132614706.996       -2369.668          40.000  
C35  22800682.416   118729043.373        1376.928          38.000  
E09                                                                                                                                  26278757.894   103123429.467         782.612          37.000  
E25                                                                                                                                  27940090.778   109642776.6101      -2473.775          28.000  
E36                                                                                                                                  24417917.028    95821131.382        -910.674          38.000  
G01  22214244.598   116736639.145        1955.813          33.000    22214249.095    87173486.279        1461.698          36.000  
G03  24746681.429   130044726.643        3618.993          25.000    24746698.817    97111455.770        2703.707          31.000  
G08  20493035.067   107691616.338         564.197          42.000    20493040.164    80419084.554         421.139          35.000  
G10  22785768.641   119740022.1081      -2791.979          33.000    22785778.234    89416260.215       -2085.552          36.000  
G21  21154742.676   111168922.394          91.836          37.000  
G27  20974917.567   110223910.362       -1673.319          42.000    20974922.064    82310098.670       -1250.959          35.000  
G32  23782512.010   124977879.136        1535.343          38.000    23782520.704    93327729.400        1146.105          35.000  
R05  22163555.090   118476904.462       -2518.352          43.000  
R06  20432842.138   109033526.293        1795.867          27.000  
R07  22794217.092   122019229.468        4091.190          36.000  
R11  21748031.651   116214887.779       -3278.706          30.000  
R12  21989536.960   117464160.214         280.709          39.000  
R21  20364335.664   108973673.847          20.773          42.000  
R22  21965102.676   117251210.234        1810.783          28.000  
> 2022  5  5 16  0 41.9998653  0 24
C19  22792341.590   118685636.728        2262.938          38.000  
C20  23141263.437   120502541.241        -510.206          44.000  
C26  24922212.611   129776335.626       -1243.111          28.000  
C29  22011720.103   114620719.623        -741.844          43.000  
C30  25467746.446   132617076.474       -2370.084          39.000  
C35  22800415.901   118727666.813        1376.379          37.000  
E09                                                                                                                                  26278558.532   103122646.507         783.041          34.000  
E25                                                                                                                                  27940721.241   109645251.024       -2473.246          28.000  
E36                                                                                                                                  24418149.967    95822042.440        -911.048          38.000  
G01                                                                  22213877.053    87172025.739        1459.413          31.000  
G03  24745991.307   130041107.647        3619.114          25.000    24746009.894    97108752.118        2703.516          32.000  
G08  20492928.041   107691053.205         562.831          42.000    20492933.138    80418663.940         419.712          33.000  
G10                                                                  22786310.366    89418345.793       -2085.561          37.000  
G21  21154724.389   111168831.291          90.583          34.000  
G22  24208446.641   127216249.1541       2027.335          39.000  
G27  20975235.047   110225583.586       -1672.983          44.000    20975240.743    82311348.974       -1249.582          35.000  
G32  23782220.311   124976343.043        1536.328          40.000    23782228.406    93326582.865        1146.647          32.000  
R05  22164020.368   118479391.685       -2518.876          36.000  
R06  20432506.970   109031730.736        1795.039          29.000  
R07  22793455.019   122015150.230        4090.671          37.000  
R11  21748646.226   116218171.804       -3279.353          27.000  
R12  21989483.597   117463875.219         278.594          36.000  
R21  20364330.867   108973648.449          20.452          43.000  
R22  21964764.810   117249407.023        1809.235          26.000  
> 2022  5  5 16  0 42.9998651  0 24
C19  22791847.232   118683060.924        2263.916          40.000  
C20  23141302.410   120502737.413        -507.197          40.000  
C26  24922390.988   129777267.136       -1244.701          31.000  
C29  22011802.246   114621147.764        -738.540          42.000  
C30  25468142.772   132619130.988       -2365.527          38.000  
C35  22800091.225   118725978.215        1377.663          38.000  
E09                                                                                                                                  26278298.013   103121627.909         782.724          27.000  
E25                                                                                                                                  27941290.547   109647487.667       -2471.087          30.000  
E36                                                                                                                                  24418320.548    95822717.204        -909.647          36.000  
G01  22213441.155   116732413.1341       1953.902          32.000    22213444.752    87170332.096        1457.034          27.000  
G03                                                                  24745261.312    97105813.917        2701.907          36.000  
G08  20492761.057   107690174.812         564.146          42.000    20492765.853    80418007.989         420.806          34.000  
G10                                                                  22786782.239    89420194.534       -2082.388          38.000  
G16  23711477.686   124604619.9881      -3801.653          37.000  
G21  21154645.843   111168426.264          89.506          39.000  
G22  24208002.648   127213906.188        2028.313          30.000  
G27  20975493.768   110226940.121       -1670.938          40.000    20975499.164    82312362.754       -1248.540          39.000  
G32  23781866.856   124974489.539        1538.671          45.000    23781875.250    93325200.409        1148.152          26.000  
R05  22164427.786   118481569.543       -2517.275          37.000  
R06  20432110.045   109029615.299        1796.168          29.000  
R07  22792621.896   122010690.246        4092.230          38.000  
R11  21749199.043   116221126.406       -3280.867          35.000  
R12  21989370.875   117463272.468         277.758          32.000  
R21  20364261.315   108973276.204          22.789          42.000  
> 2022  5  5 16  0 43.9998651  0 24
C19  22791411.934   118680798.478        2262.544          40.000  
C20  23141398.943   120503245.007        -508.575          42.000  
C26  24922629.623   129778510.833       -1243.999          27.000  
C29  22011944.948   114621886.613        -740.202          42.000  
C30  25468594.859   132621496.167       -2365.147          33.000  
C35  22799827.708   118724600.279        1375.301          38.000  
E09                                                                                                                                  26278098.051   103120844.300         784.343          34.000  
E25                                                                                                                                  27941920.711   109649959.684       -2472.950          33.000  
E36                                                                                                                                  24418551.389    95823625.683        -909.901          37.000  
G01  22213070.012   116730459.320        1953.379          31.000    22213073.909    87168874.590        1457.681          28.000  
G03  24744552.603   130033555.3951       3617.722          37.000    24744572.689    97103112.747        2700.810          35.000  
G08  20492653.731   107689610.707         562.504          40.000    20492658.528    80417587.081         420.185          33.000  
G10                                                                  22787312.872    89422276.373       -2082.542          39.000  
G16  23712201.984   124608422.102       -3802.251          35.000  
G22  24207617.715   127211877.612        2028.462          34.000  
G27  20975810.948   110228611.417       -1672.198          41.000    20975817.244    82313611.154       -1248.570          38.000  
G32  23781574.259   124972951.121        1539.653          45.000    23781582.053    93324051.755        1148.514          30.000  
R05  22164903.257   118484111.081       -2515.791          41.000  
R06  20431772.178   109027818.956        1796.534          29.000  
R07  22791858.025   122006601.312        4089.186          37.000  
R11  21749812.418   116224403.213       -3282.732          34.000  
R12  21989319.611   117462998.634         276.978          32.000  
R21  20364257.418   108973255.221          21.467          39.000  
R22  21964020.425   117245433.5101       1808.619          18.000  
> 2022  5  5 16  0 44.9998648  0 26
C19  22790886.697   118678067.118        2262.587          40.000  
C20  23141408.236   120503284.967        -508.329          42.000  
C26  24922778.320   129779286.640       -1244.223          25.000  
C29  22011996.212   114622157.853        -739.240          42.000  
C30  25468957.907   132623392.926       -2365.287          34.000  
C32  26603345.587   138530513.6631      -2890.656          31.000  
C35  22799474.252   118722755.653        1377.373          40.000  
E09                                                                                                                                  26277807.552   103119706.855         784.165          33.000  
E25                                                                                                                                  27942460.937   109652079.674       -2473.569          33.000  
E36                                                                                                                                  24418692.591    95824181.524        -907.907          35.000  
G01  22212608.031   116728033.975        1952.122          31.000    22212612.229    87167064.567        1457.981          25.000  
G03  24743772.243   130029465.139        3617.021          37.000    24743794.428    97100059.103        2700.749          35.000  
G08  20492454.969   107688574.840         563.772          41.000    20492460.964    80416813.508         420.975          33.000  
G10  22787744.273   119750396.9821      -2788.234          34.000    22787753.566    89424005.999       -2083.067          39.000  
G16  23712835.446   124611751.698       -3803.329          36.000  
G21  21154524.427   111167773.6191         90.516          39.000  
G22  24207143.144   127209375.880        2029.095          34.000  
G27  20976039.390   110229810.146       -1672.511          40.000    20976045.686    82314506.239       -1248.553          39.000  
G32  23781191.424   124970939.372        1538.261          45.000    23781198.919    93322550.173        1148.164          27.000  
R05  22165283.693   118486144.553       -2516.001          41.000  
R06  20431344.375   109025542.202        1796.672          26.000  
R07  22791000.619   122002011.644        4088.923          36.000  
R11  21750342.451   116227235.965       -3283.535          33.000  
R12  21989181.107   117462258.857         275.468          34.000  
R21  20364159.086   108972729.208          22.280          40.000  
R22  21963600.416   117243191.520        1811.446          20.000  
> 2022  5  5 16  0 45.9998648  0 26
C19  22790453.497   118675804.851        2261.962          40.000  
C20  23141505.369   120503793.484        -510.054          40.000  
C26  24923014.856   129780530.769       -1245.152          25.000  
C29  22012138.014   114622897.519        -740.404          43.000  
C30  25469410.894   132625758.349       -2365.588          36.000  
C32  26603901.103   138533403.952       -2889.910          30.000  
C35  22799207.737   118721378.606        1378.831          40.000  
E09                                                                                                                                  26277608.190   103118922.795         784.369          33.000  
E25                                                                                                                                  27943091.101   109654552.479       -2472.018          33.000  
E36                                                                                                                                  24418923.731    95825090.556        -909.936          35.000  
G01  22212238.387   116726080.918        1952.995          29.000    22212239.587    87165605.700        1459.952          23.000  
G03  24743084.519   130025847.985        3618.245          38.000    24743106.104    97097358.193        2701.287          35.000  
G08  20492348.542   107688011.223         563.756          41.000    20492354.238    80416392.238         421.040          35.000  
G10  22788273.407   119753185.173       -2788.186          37.000    22788284.199    89426089.047       -2083.843          39.000  
G16  23713560.644   124615554.060       -3801.474          38.000  
G21  21154509.138   111167683.928          89.764          39.000  
G22  24206758.210   127207346.720        2028.786          33.000  
G27  20976358.069   110231482.267       -1672.326          40.000    20976364.365    82315754.948       -1249.506          39.000  
G32  23780898.227   124969401.059        1536.732          46.000    23780906.321    93321401.975        1147.108          26.000  
R05  22165753.768   118488657.193       -2518.518          44.000  
R06  20431002.611   109023745.857        1796.038          29.000  
R07  22790237.647   121997927.369        4090.755          36.000  
R11  21750959.724   116230534.739       -3284.084          34.000  
R12  21989133.140   117462002.865         274.254          34.000  
R21  20364158.187   108972723.987          22.231          39.000  
R22  21963259.852   117241373.125        1809.221          21.000  
> 2022  5  5 16  0 46.9998646  0 26
C19  22789960.039   118673230.450        2260.963          38.000  
C20  23141544.342   120503993.606        -513.555          40.000  
C26  24923195.031   129781462.719       -1243.088          27.000  
C29  22012220.457   114623326.672        -742.299          43.000  
C30  25469805.421   132627813.185       -2368.573          38.000  
C32  26604398.158   138535983.770       -2893.020          28.000  
C35  22798883.062   118719687.272        1378.100          39.000  
E09                                                                                                                                  26277348.270   103117904.499         780.986          34.000  
E25                                                                                                                                  27943661.006   109656789.481       -2472.772          31.000  
E36                                                                                                                                  24419097.311    95825765.534        -910.411          38.000  
G01  22211805.187   116723811.376        1955.153          29.000    22211807.586    87163909.971        1461.922          28.000  
G03  24742335.038   130021912.003        3620.567          35.000    24742356.923    97094420.192        2703.271          37.000  
G08  20492183.357   107687133.131         561.995          40.000    20492186.355    80415735.999         420.209          32.000  
G10  22788744.680   119755660.212       -2792.751          38.000    22788754.274    89427939.184       -2085.060          36.000  
G16  23714223.185   124619040.116       -3801.568          37.000  
G21  21154433.291   111167277.721          90.159          39.000  
G22  24206313.318   127205003.453        2026.679          31.000  
G27  20976618.889   110232841.261       -1675.650          42.000    20976621.887    82316769.820       -1250.366          35.000  
G32  23780545.971   124967551.819        1532.990          46.000    23780553.765    93320019.528        1146.790          34.000  
R05  22166165.383   118490858.377       -2522.873          41.000  
R06  20430607.485   109021631.198        1792.946          27.000  
R07  22789416.515   121993530.978        4091.510          37.000  
R11  21751514.040   116233496.946       -3281.387          30.000  
R12  21989017.120   117461383.445         275.259          30.000  
R21  20364099.128   108972408.548          20.616          42.000  
R22  21962859.928   117239238.134        1807.250          21.000  
> 2022  5  5 16  0 47.9998646  0 25
C19  22789525.040   118670969.761        2260.460          42.000  
C20  23141641.175   120504507.375        -514.212          40.000  
C26  24923435.465   129782706.164       -1243.286          28.000  
C29  22012362.259   114624069.306        -742.867          41.000  
C30  25470261.105   132630182.818       -2370.520          41.000  
C32  26604954.873   138538878.194       -2895.598          26.000  
C35  22798621.043   118718309.692        1376.849          40.000  
E09                                                                                                                                  26277149.808   103117123.623         780.723          37.000  
E25                                                                                                                                  27944290.870   109659261.679       -2471.693          32.000  
E36                                                                                                                                  24419329.950    95826676.209        -911.009          39.000  
G01  22211434.044   116721855.927        1956.000          33.000    22211435.543    87162448.537        1460.702          29.000  
G03  24741645.815   130018292.108        3619.469          37.000    24741668.299    97091717.413        2702.846          36.000  
G08  20492076.631   107686571.151         561.924          42.000    20492079.329    80415316.352         418.875          34.000  
G10  22789282.508   119758454.279       -2794.264          39.000    22789285.206    89430024.803       -2086.046          33.000  
G16  23714944.186   124622842.135       -3802.142          40.000  
G21  21154416.202   111167187.708          90.515          38.000  
G22  24205928.384   127202977.392        2025.088          40.000  
G27  20976939.667   110234517.243       -1675.742          40.000    20976939.967    82318020.486       -1251.086          31.000  
G32  23780251.574   124966018.322        1532.832          40.000    23780262.367    93318873.701        1145.002          36.000  
R05  22166631.560   118493350.360       -2523.025          39.000  
R06  20430271.118   109019838.979        1790.865          28.000  
R07  22788655.342   121989456.516        4091.179          39.000  
R11  21752125.017   116236761.740       -3281.377          36.000  
R21  20364097.629   108972400.709          19.548          42.000  
R22  21962524.161   117237446.427        1807.274          21.000  
> 2022  5  5 16  0 48.9998643  0 26
C19  22789000.104   118668240.759        2260.095          43.000  
C20  23141651.668   120504553.324        -513.470          42.000  
C26  24923585.661   129783480.965       -1242.829          27.000  
C29  22012415.322   114624343.621        -742.987          41.000  
C30  25470632.848   132632084.810       -2369.259          41.000  
C32  26605420.451   138541307.209       -2897.568          27.000  
C35  22798267.588   118716464.604        1375.445          41.000  
E09                                                                                                                                  26276861.108   103115990.010         780.353          37.000  
E25                                                                                                                                  27944830.197   109661380.021       -2471.408          32.000  
E36                                                                                                                                  24419472.051    95827234.126        -910.853          38.000  
G01                                                                  22210973.863    87160635.784        1458.228          28.000  
G03  24740868.153   130014200.029        3619.096          36.000    24740889.139    97088661.361        2702.841          35.000  
G08  20491879.067   107685537.481         560.146          43.000    20491882.665    80414544.115         419.298          34.000  
G10  22789724.102   119760776.019       -2794.044          40.000    22789727.400    89431758.428       -2086.764          34.000  
G16  23715578.547   124626171.523       -3802.814          38.000  
G21  21154309.476   111166625.746          87.965          39.000  
G22  24205451.415   127200479.940        2024.543          39.000  
G27  20977166.910   110235720.418       -1676.333          42.000    20977168.408    82318919.145       -1251.364          30.000  
G32  23779871.138   124964012.768        1533.614          42.000  
R05  22167016.194   118495406.009       -2523.193          39.000  
R06  20429848.710   109017568.507        1789.805          27.000  
R07  22787796.437   121984859.232        4090.306          38.000  
R11  21752646.056   116239545.757       -3282.455          35.000  
R12  21988818.058   117460319.9221        274.042          30.000  
R21  20364004.393   108971901.507          18.970          42.000  
R22  21962095.458   117235157.105        1805.744          22.000  
> 2022  5  5 16  0 49.9998643  0 25
C19  22788566.004   118665980.716        2259.401          41.000  
C20  23141750.300   120505065.097        -511.485          43.000  
C26  24923827.893   129784724.552       -1245.386          21.000  
C29  22012558.623   114625084.729        -741.209          42.000  
C30  25471087.033   132634451.667       -2366.083          34.000  
C32  26605978.664   138544203.739       -2895.478          30.000  
C35  22798001.672   118715088.746        1375.890          40.000  
E09                                                                                                                                  26276661.746   103115208.661         782.154          31.000  
E25                                                                                                                                  27945460.660   109663852.025       -2473.325          33.000  
E36                                                                                                                                  24419703.491    95828143.936        -909.300          36.000  
G01  22210598.223   116717474.0191       1951.383          30.000    22210603.319    87159178.187        1457.970          25.000  
G03  24740179.230   130010583.185        3616.010          36.000    24740200.516    97085959.817        2700.734          34.000  
G08  20491771.442   107684976.204         560.487          41.000    20491775.939    80414124.845         418.608          32.000  
G10  22790249.039   119763567.266       -2792.005          37.000    22790259.831    89433844.176       -2085.152          38.000  
G16  23716304.344   124629974.584       -3803.160          38.000  
G21  21154294.187   111166537.707          87.238          38.000  
G27  20977484.690   110237394.520       -1674.717          40.000    20977487.987    82320169.709       -1250.217          38.000  
G32  23779580.339   124962476.903        1536.545          44.000  
R05  22167492.864   118497954.504       -2519.802          42.000  
R06  20429508.745   109015778.290        1790.323          27.000  
R07  22787032.266   121980768.793        4089.646          38.000  
R11  21753264.528   116242850.964       -3285.463          35.000  
R12  21988767.393   117460049.291         271.276          33.000  
R21  20363995.999   108971856.095          20.912          41.000  
R22  21961763.587   117233386.225        1808.382          24.000  
> 2022  5  5 16  0 50.9998641  0 24
C19  22788074.344   118663407.703        2261.113          40.000  
C20  23141788.673   120505264.518        -514.669          43.000  
C26  24924008.968   129785659.312       -1247.739          28.000  
C29  22012641.365   114625513.330        -742.443          41.000  
C30  25471479.761   132636505.608       -2366.709          36.000  
C35  22797676.097   118713399.973        1377.714          41.000  
E25                                                                                                                                  27946031.165   109666089.867       -2472.359          32.000  
E36                                                                                                                                  24419874.373    95828817.794        -909.177          37.000  
G01  22210166.522   116715207.528        1951.865          33.000    22210172.218    87157484.827        1458.080          32.000  
G03  24739431.248   130006652.732        3616.760          36.000    24739452.533    97083024.475        2701.564          33.000  
G08  20491604.158   107684099.847         561.480          42.000    20491609.854    80413470.589         419.091          35.000  
G10                                                                  22790730.206    89435693.445       -2085.401          33.000  
G16  23716966.885   124633462.100       -3802.015          36.000  
G21  21154216.840   111166133.928          90.325          39.000  
G22  24204618.591   127196112.5861       2027.484          31.000  
G27  20977742.211   110238753.600       -1675.976          39.000    20977747.308    82321184.562       -1250.901          38.000  
G32  23779226.284   124960626.106        1532.851          45.000  
R05  22167902.980   118500146.901       -2521.160          38.000  
R06  20429115.717   109013667.571        1790.638          29.000  
R07  22786212.633   121976380.670        4090.638          35.000  
R12  21988657.069   117459460.062         270.534          37.000  
R20  22722064.842   121505092.6151      -2314.063          27.000  
R21  20363931.244   108971509.938          20.743          43.000  
R22  21961369.960   117231284.848        1808.406          28.000  
> 2022  5  5 16  0 51.9998638  0 26
C19  22787550.307   118660679.533        2259.036          42.000  
C20  23141797.667   120505311.885        -515.625          43.000  
C26  24924158.564   129786438.077       -1246.662          31.000  
C29  22012693.829   114625787.609        -743.156          40.000  
C30  25471844.009   132638406.127       -2370.342          38.000  
C32  26606940.698   138549213.7221      -2895.540          26.000  
C35  22797320.843   118711553.607        1378.145          40.000  
E25                                                                                                                                  27946571.691   109668209.122       -2472.026          33.000  
E36                                                                                                                                  24420015.275    95829374.556        -909.978          37.000  
G01  22209705.441   116712781.673        1954.096          34.000    22209710.537    87155672.405        1460.182          33.000  
G03  24738654.186   130002561.353        3619.851          33.000    24738674.272    97079969.367        2702.461          36.000  
G08  20491407.494   107683066.185         560.316          43.000    20491413.190    80412698.671         419.171          36.000  
G10                                                                  22791171.200    89437427.164       -2087.059          33.000  
G16  23717597.949   124636791.422       -3801.968          37.000  
G21  21154109.515   111165571.542          89.711          39.000  
G22  24204144.020   127193612.929        2026.574          34.000  
G27  20977971.852   110239958.021       -1677.143          40.000    20977976.049    82322083.092       -1252.941          35.000  
G32  23778844.948   124958620.929        1532.503          41.000  
R05  22168284.916   118502188.221       -2524.440          39.000  
R06  20428690.912   109011397.796        1788.932          28.000  
R07  22785361.522   121971824.529        4090.484          39.000  
R11  21754348.578   116248643.6861      -3284.241          32.000  
R12  21988516.467   117458708.574         271.513          36.000  
R20  22722408.104   121506927.994       -2315.314          33.000  
R21  20363836.210   108971001.562          19.765          40.000  
R22  21960939.458   117228986.460        1808.880          28.000  
> 2022  5  5 16  0 52.9998638  0 26
C19  22787116.807   118658420.139        2260.394          42.000  
C20  23141895.999   120505827.070        -513.977          43.000  
C26  24924397.199   129787684.623       -1246.825          32.000  
C29  22012836.231   114626530.314        -742.026          41.000  
C30  25472297.895   132640776.669       -2369.621          38.000  
C32  26607498.012   138552109.379       -2895.404          28.000  
C35  22797058.525   118710176.471        1375.688          40.000  
E25                                                                                                                                  27947202.454   109670681.802       -2471.922          32.000  
E36                                                                                                                                  24420248.514    95830284.334        -909.754          36.000  
G01  22209333.099   116710827.533        1953.997          35.000    22209338.795    87154212.613        1459.046          31.000  
G03  24737966.462   129998941.095        3620.427          35.000    24737985.649    97077266.805        2702.736          34.000  
G08  20491301.967   107682506.052         560.038          44.000    20491307.063    80412280.360         417.562          33.000  
G10                                                                  22791703.932    89439513.785       -2086.499          36.000  
G16  23718322.247   124640593.401       -3802.275          38.000  
G21  21154092.726   111165482.420          88.135          38.000  
G22  24203759.686   127191586.203        2026.827          36.000  
G27  20978292.630   110241635.081       -1675.654          41.000    20978296.528    82323335.922       -1251.749          37.000  
G32  23778554.449   124957087.759        1534.847          41.000  
R05  22168762.785   118504742.169       -2524.854          39.000  
R06  20428357.542   109009609.207        1787.703          27.000  
R07  22784594.054   121967716.837        4090.868          41.000  
R11  21754963.452   116251928.786       -3284.482          37.000  
R12  21988465.802   117458438.179         270.248          38.000  
R20  22722840.705   121509241.870       -2314.242          32.000  
R21  20363838.908   108971015.534          20.078          42.000  
R22  21960602.791   117227189.673        1808.545          24.000  
> 2022  5  5 16  0 53.9998636  0 24
C19  22786621.850   118655848.086        2258.707          40.000  
C20  23141935.272   120506029.558        -515.680          41.000  
C26  24924576.175   129788619.763       -1247.488          28.000  
C29  22012918.674   114626960.268        -743.082          42.000  
C30  25472693.621   132642833.513       -2369.378          38.000  
C35  22796733.850   118708487.940        1377.325          40.000  
E25                                                                                                                                  27947771.460   109672917.557       -2471.223          31.000  
E36                                                                                                                                  24420419.695    95830959.766        -910.523          36.000  
G01  22208901.697   116708558.989        1953.662          33.000    22208907.094    87152518.944        1458.324          30.000  
G03  24737218.780   129995005.733        3620.224          35.000    24737236.168    97074328.028        2703.595          35.000  
G08  20491135.282   107681630.704         559.904          41.000    20491140.079    80411626.791         418.273          30.000  
G10  22792165.012   119773638.4721      -2795.017          37.000    22792176.105    89441365.132       -2086.969          38.000  
G16  23718986.587   124644079.534       -3801.877          36.000  
G21  21154014.481   111165079.355          88.595          39.000  
G22  24203314.194   127189244.001        2026.645          29.000  
G27  20978549.253   110242996.007       -1676.542          41.000    20978555.848    82324352.320       -1252.446          40.000  
G32  23778203.093   124955239.025        1532.715          45.000  
R05  22169171.702   118506928.167       -2525.608          38.000  
R06  20427960.917   109007501.768        1787.292          25.000  
R07  22783764.228   121963274.453        4089.526          37.000  
R11  21755518.968   116254897.497       -3285.429          37.000  
R12  21988357.277   117457858.261         269.216          36.000  
R20  22723213.647   121511235.822       -2315.375          32.000  
R21  20363779.249   108970696.735          19.908          41.000  
> 2022  5  5 16  0 54.9998636  0 26
C19  22786187.451   118653589.736        2258.195          41.000  
C20  23142035.102   120506545.615        -516.849          43.000  
C26  24924817.208   129789867.397       -1247.863          26.000  
C29  22013061.974   114627702.826        -743.048          42.000  
C30  25473145.708   132645202.746       -2368.350          35.000  
C32  26608549.085   138557588.6781      -2896.215          29.000  
C35  22796468.233   118707110.733        1377.068          40.000  
E25                                                                                                                                  27948401.324   109675389.005       -2471.558          31.000  
E36                                                                                                                                  24420652.334    95831869.527        -909.977          36.000  
G01  22208531.454   116706604.532        1953.812          31.000    22208535.651    87151060.334        1457.990          29.000  
G03  24736530.756   129991385.980        3619.543          35.000    24736547.844    97071625.167        2701.906          36.000  
G08  20491029.156   107681070.753         558.785          40.000    20491033.353    80411208.368         419.175          30.000  
G10  22792698.043   119776433.335       -2794.948          37.000    22792708.536    89443451.987       -2087.853          37.000  
G16  23719712.085   124647883.111       -3803.678          37.000  
G21  21153996.493   111164990.325          88.135          39.000  
G22  24202928.661   127187218.210        2025.126          36.000  
G27  20978867.332   110244673.503       -1677.566          40.000    20978875.127    82325605.087       -1253.670          39.000  
G32  23777911.394   124953706.591        1532.057          46.000    23777918.589    93309681.0211       1144.556          27.000  
R05  22169642.076   118509442.758       -2526.718          39.000  
R06  20427621.852   109005713.581        1786.667          24.000  
R07  22783000.057   121959183.852        4090.063          41.000  
R11  21756127.247   116258148.444       -3285.878          38.000  
R12  21988311.409   117457613.097         267.874          38.000  
R20  22723646.547   121513550.419       -2315.572          31.000  
R21  20363774.452   108970671.223          20.022          40.000  
R22  21959856.308   117223204.8611       1811.452          24.000  
> 2022  5  5 16  0 55.9998633  0 24
C19  22785662.514   118650862.863        2259.063          39.000  
C20  23142044.096   120506593.365        -515.902          41.000  
C26  24924967.104   129790647.609       -1249.531          25.000  
C29  22013113.838   114627977.368        -743.223          43.000  
C30  25473513.554   132647102.229       -2367.785          37.000  
C32  26609017.361   138560016.878       -2896.493          30.000  
C35  22796114.179   118705266.603        1375.690          40.000  
E25                                                                                                                                  27948940.951   109677507.428       -2470.587          32.000  
E36                                                                                                                                  24420794.736    95832426.808        -909.022          36.000  
G01  22208068.574   116704178.448        1952.347          29.000    22208074.870    87149250.700        1456.194          27.000  
G03                                                                  24735769.583    97068570.388        2701.853          36.000  
G08  20490831.293   107680039.149         559.448          40.000    20490836.389    80410437.294         417.821          33.000  
G10  22793146.833   119778755.200       -2794.666          41.000    22793151.330    89445186.103       -2086.993          38.000  
G16  23720344.347   124651212.266       -3801.720          36.000  
G21  21153890.966   111164430.395          88.086          38.000  
G27  20979097.573   110245877.595       -1676.533          41.000    20979104.168    82326504.881       -1252.309          40.000  
G32  23777529.159   124951700.520        1533.518          47.000    23777536.354    93308183.959        1142.960          28.000  
R05  22170027.609   118511503.836       -2526.330          37.000  
R06  20427197.046   109003447.006        1786.203          27.000  
R11  21756642.890   116260903.271       -3285.324          37.000  
R12  21988184.597   117456935.541         267.038          36.000  
R20  22723992.208   121515398.656       -2313.903          28.000  
R21  20363674.022   108970133.451          19.049          41.000  
R22  21959428.204   117220919.826        1807.918          23.000  
> 2022  5  5 16  0 56.9998633  0 26
C19  22785229.614   118648602.507        2261.522          39.000  
C20  23142141.529   120507108.183        -513.920          44.000  
C26  24925208.737   129791897.208       -1247.948          22.000  
C29  22013255.340   114628718.329        -739.535          43.000  
C30  25473969.238   132649469.287       -2366.282          37.000  
C32  26609573.775   138562913.809       -2896.581          31.000  
C35  22795849.162   118703887.920        1380.980          40.000  
E25                                                                                                                                  27949571.115   109679977.938       -2469.520          33.000  
E36                                                                                                                                  24421025.576    95833334.523        -907.057          35.000  
G01  22207695.632   116702225.911        1954.189          31.000    22207703.127    87147792.628        1461.203          28.000  
G03                                                                  24735080.660    97065867.801        2703.088          36.000  
G08  20490725.166   107679477.555         563.237          38.000    20490730.862    80410018.666         420.707          32.000  
G10  22793674.767   119781548.515       -2792.513          43.000    22793683.461    89447271.233       -2084.119          40.000  
G16  23721068.046   124655013.084       -3799.052          36.000  
G21  21153873.278   111164339.835          92.230          39.000  
G22  24202058.663   127182694.4611       2026.689          24.000  
G27  20979416.552   110247553.133       -1674.669          43.000    20979422.548    82327756.256       -1250.438          37.000  
G32  23777236.861   124950166.577        1535.204          46.000    23777244.956    93307039.688        1144.878          30.000  
R05  22170501.281   118514036.237       -2523.940          38.000  
R06  20426862.777   109001660.366        1787.162          32.000  
R07  22781380.279   121950512.7511       4092.138          31.000  
R11  21757258.363   116264192.522       -3283.904          33.000  
R12  21988132.732   117456659.086         270.029          33.000  
R20  22724423.309   121517704.754       -2311.819          26.000  
R21  20363668.326   108970103.404          24.543          40.000  
R22  21959092.437   117219127.292        1808.713          22.000  
> 2022  5  5 16  0 57.9998630  0 25
C19  22784705.577   118645872.531        2261.132          39.000  
C20  23142149.323   120507152.582        -513.720          42.000  
C26  24925358.034   129792676.477       -1247.179          31.000  
C29  22013308.703   114628988.995        -739.539          43.000  
C30  25474332.587   132651365.174       -2363.302          37.000  
C35  22795495.107   118702038.810        1380.436          39.000  
E25                                                                                                                                  27950110.441   109682094.249       -2469.182          33.000  
E36                                                                                                                                  24421167.378    95833888.388        -907.434          37.000  
G01  22207232.753   116699799.327        1953.177          29.000    22207239.648    87145977.755        1461.054          28.000  
G03  24734282.313   129979578.9791       3622.310          34.000    24734301.499    97062811.327        2704.473          33.000  
G08  20490527.303   107678442.186         562.715          40.000    20490533.599    80409245.271         420.148          31.000  
G10  22794114.563   119783867.167       -2792.120          39.000    22794124.456    89449002.444       -2085.107          39.000  
G16  23721703.307   124658339.407       -3799.385          37.000  
G21  21153766.852   111163775.737          91.405          38.000  
G22  24201584.092   127180193.822        2029.443          32.000  
G27  20979644.994   110248754.132       -1673.935          43.000    20979650.690    82328653.253       -1250.002          36.000  
G32  23776857.024   124948157.128        1535.972          44.000    23776863.920    93305540.388        1147.422          35.000  
R05  22170876.621   118516042.224       -2522.935          38.000  
R06  20426433.474   108999392.251        1788.676          27.000  
R07  22780529.468   121945958.617        4093.165          34.000  
R11  21757783.300   116266997.538       -3283.453          33.000  
R12  21987988.532   117455889.004         270.754          35.000  
R20  22724765.372   121519533.342       -2307.642          31.000  
R21  20363578.988   108969625.363          23.098          41.000  
R22  21958663.134   117216835.088        1811.598          26.000  
> 2022  5  5 16  0 58.9998630  0 24
C19  22784271.477   118643613.129        2258.567          40.000  
C20  23142248.255   120507667.642        -516.942          41.000  
C26  24925596.668   129793923.580       -1247.607          31.000  
C29  22013452.904   114629729.868        -742.575          43.000  
C30  25474785.873   132653729.930       -2366.688          37.000  
C35  22795229.791   118700660.310        1376.439          39.000  
E25                                                                                                                                  27950739.706   109684564.196       -2471.043          32.000  
E36                                                                                                                                  24421399.117    95834796.855        -909.198          38.000  
G01  22206860.111   116697845.559        1954.087          33.000    22206867.605    87144518.355        1457.921          29.000  
G03  24733592.190   129975957.548        3620.732          32.000    24733612.277    97060106.864        2703.601          33.000  
G08  20490420.577   107677881.046         559.435          40.000    20490426.873    80408826.448         418.194          32.000  
G10  22794650.292   119786660.457       -2794.057          39.000    22794655.688    89451088.541       -2087.757          37.000  
G16  23722426.106   124662140.677       -3803.095          37.000  
G21  21153750.064   111163686.169          88.247          38.000  
G22  24201199.158   127178164.611        2028.823          34.000  
G27  20979963.074   110250430.070       -1678.244          43.000    20979969.369    82329905.360       -1253.094          35.000  
G32  23776562.029   124946622.982        1532.508          44.000    23776572.821    93304393.482        1146.124          36.000  
R05  22171346.696   118518554.638       -2525.053          36.000  
R07  22779768.295   121941883.720        4091.996          31.000  
R11  21758399.374   116270290.116       -3285.813          31.000  
R12  21987932.771   117455590.954         268.847          36.000  
R20  22725197.373   121521843.969       -2312.757          30.000  
R21  20363573.891   108969597.327          20.766          41.000  
R22  21958321.670   117215012.585        1810.055          24.000  
> 2022  5  5 16  0 59.9998628  0 25
C19  22783777.719   118641042.710        2257.396          41.000  
C20  23142287.528   120507872.994        -518.869          43.000  
C26  24925775.944   129794859.668       -1249.189          31.000  
C29  22013535.047   114630160.606        -744.328          43.000  
C30  25475180.699   132655784.950       -2368.364          37.000  
C35  22794905.415   118698971.639        1376.249          39.000  
E25                                                                                                                                  27951309.611   109686800.097       -2471.362          33.000  
E36                                                                                                                                  24421571.198    95835471.522        -910.605          37.000  
G01  22206427.810   116695577.524        1951.711          32.000    22206436.504    87142826.233        1456.232          31.000  
G03  24732845.108   129972022.986        3618.612          35.000    24732863.695    97057168.720        2702.223          34.000  
G08  20490255.391   107677007.687         557.032          41.000    20490259.588    80408173.146         418.174          30.000  
G10  22795124.863   119789140.317       -2796.840          43.000    22795126.662    89452940.850       -2088.138          37.000  
G16  23723090.446   124665628.105       -3802.568          36.000  
G21  21153671.218   111163284.005          86.846          38.000  
G22  24200753.067   127175821.334        2027.334          30.000  
G27  20980222.394   110251792.945       -1678.932          40.000    20980228.690    82330923.240       -1254.371          37.000  
G32  23776209.173   124944775.250        1531.263          43.000    23776221.464    93303012.897        1144.871          36.000  
R05  22171758.611   118520756.892       -2528.764          35.000  
R06  20425704.079   108995498.1221       1785.667          27.000  
R07  22778947.463   121937489.381        4090.577          32.000  
R11  21758957.287   116273270.880       -3287.675          34.000  
R12  21987824.546   117455012.484         265.314          37.000  
R20  22725569.715   121523834.421       -2313.909          30.000  
R21  20363515.432   108969285.081          17.924          42.000  
R22  21957919.049   117212863.551        1806.815          24.000  
> 2022  5  5 16  1  0.9998628  0 27
C19  22783344.819   118638786.393        2255.303          40.000  
C20  23142387.658   120508391.878        -519.376          43.000  
C26  24926015.179   129796109.393       -1249.578          29.000  
C29  22013676.549   114630904.548        -744.099          43.000  
C30  25475634.885   132658153.335       -2368.392          35.000  
C35  22794643.097   118697595.760        1375.642          39.000  
E02                                                                                                                                  24731900.162    97053266.5991      -1816.859          32.000  
E05                                                                                                                                  26873294.006   105456582.0961       1838.724          26.000  
E25                                                                                                                                  27951939.475   109689271.340       -2470.972          31.000  
E36                                                                                                                                  24421802.638    95836381.987        -910.249          36.000  
G01  22206056.667   116693626.224        1950.989          32.000    22206065.361    87141371.023        1454.159          25.000  
G03  24732157.084   129968405.432        3616.292          33.000    24732175.371    97054467.114        2700.762          36.000  
G08  20490148.665   107676450.662         556.571          39.000    20490152.263    80407756.436         416.149          29.000  
G10  22795656.695   119791936.702       -2796.702          43.000    22795659.094    89455029.176       -2089.052          37.000  
G16  23723812.346   124669432.142       -3805.005          37.000  
G21  21153655.629   111163197.110          86.924          37.000  
G22  24200367.234   127173794.945        2025.433          26.000  
G27  20980541.673   110253472.117       -1679.568          43.000    20980548.868    82332177.660       -1254.363          37.000  
G32  23775918.974   124943244.225        1531.140          42.000    23775930.066    93301868.520        1144.291          33.000  
R05  22172231.983   118523287.300       -2530.448          37.000  
R06  20425372.209   108993714.201        1783.005          27.000  
R07  22778184.791   121933407.568        4088.904          33.000  
R11  21759573.061   116276561.089       -3290.379          34.000  
R12  21987777.179   117454759.618         262.594          35.000  
R20  22726000.817   121526139.796       -2314.827          30.000  
R21  20363511.534   108969264.549          19.075          42.000  
R22  21957581.483   117211061.221        1807.525          23.000  
> 2022  5  5 16  1  1.9998628  0 27
C19  22782911.319   118636530.032        2256.828          39.000  
C20  23142487.789   120508911.115        -519.566          42.000  
C26  24926253.814   129797360.248       -1251.170          26.000  
C29  22013819.250   114631648.744        -744.254          42.000  
C30  25476090.270   132660521.829       -2368.700          39.000  
C32  26612200.557   138576606.8251      -2897.645          28.000  
C35  22794377.781   118696221.157        1375.162          40.000  
E02                                                                                                                                  24732363.641    97055084.100       -1818.446          35.000  
E05                                                                                                                                  26872826.929   105454744.120        1837.875          30.000  
E25                                                                                                                                  27952569.639   109691743.417       -2472.026          32.000  
E36                                                                                                                                  24422034.377    95837291.886        -910.163          34.000  
G01  22205684.325   116691677.026        1948.939          28.000    22205694.218    87139917.057        1453.231          25.000  
G03  24731469.360   129964789.536        3615.742          36.000    24731487.348    97051766.531        2700.587          36.000  
G08  20490043.138   107675894.034         557.095          39.000    20490047.635    80407340.902         415.192          31.000  
G10  22796186.728   119794733.028       -2797.104          42.000    22796190.326    89457118.279       -2089.751          36.000  
G16  23724538.144   124673237.048       -3804.706          39.000  
G21  21153640.040   111163111.076          86.475          37.000  
G27  20980861.852   110255151.726       -1679.219          41.000    20980868.747    82333432.016       -1254.000          39.000  
G32  23775628.475   124941712.956        1530.485          44.000    23775638.668    93300725.390        1142.974          33.000  
R05  22172703.257   118525807.076       -2531.384          40.000  
R06  20425043.037   108991932.767        1781.082          26.000  
R07  22777422.419   121929326.235        4088.051          38.000  
R11  21760188.535   116279850.162       -3291.180          38.000  
R12  21987729.811   117454506.076         260.489          36.000  
R20  22726431.019   121528440.562       -2314.971          29.000  
R21  20363495.645   108969178.988          18.148          40.000  
R22  21957240.319   117209240.081        1809.423          25.000  
> 2022  5  5 16  1  2.9998628  0 28
C19  22782478.119   118634274.123        2255.113          41.000  
C20  23142587.620   120509430.661        -519.695          42.000  
C26  24926493.947   129798611.589       -1252.296          27.000  
C29  22013961.352   114632392.590        -743.377          41.000  
C30  25476544.455   132662890.400       -2368.202          33.000  
C32  26612758.471   138579505.383       -2899.319          29.000  
C35  22794112.464   118694845.532        1376.209          39.000  
E02                                                                                                                                  24732827.120    97056902.168       -1817.789          32.000  
E05                                                                                                                                  26872359.253   105452906.988        1836.825          29.000  
E25                                                                                                                                  27953200.102   109694215.746       -2472.475          33.000  
E36                                                                                                                                  24422265.817    95838202.126        -909.777          34.000  
G01  22205312.882   116689728.151        1949.029          29.000    22205324.574    87138463.746        1454.091          26.000  
G03  24730778.938   129961173.624        3616.761          36.000    24730799.624    97049066.045        2700.854          37.000  
G08  20489935.813   107675337.311         555.851          38.000    20489942.108    80406926.421         414.421          29.000  
G10  22796719.160   119797529.676       -2796.362          42.000    22796723.357    89459207.219       -2088.419          37.000  
G16  23725261.843   124677041.373       -3803.844          36.000  
G21  21153622.352   111163024.918          86.457          39.000  
G22  24199597.667   127169745.0421       2024.707          29.000  
G27  20981180.531   110256831.012       -1679.425          44.000    20981187.726    82334685.925       -1255.021          38.000  
G32  23775336.777   124940182.362        1530.692          43.000    23775346.670    93299582.787        1142.792          32.000  
R05  22173186.223   118528388.486       -2530.674          42.000  
R06  20424712.965   108990152.093        1780.179          31.000  
R07  22776658.248   121925235.167        4087.851          31.000  
R11  21760802.510   116283131.550       -3291.314          35.000  
R12  21987679.146   117454235.903         259.656          34.000  
R20  22726863.920   121530755.544       -2315.040          28.000  
R21  20363498.343   108969193.486          18.252          39.000  
R22  21956898.555   117207416.100        1808.523          23.000  
> 2022  5  5 16  1  3.9998625  0 28
C19  22781954.681   118631549.878        2255.737          41.000  
C20  23142597.813   120509481.843        -520.394          43.000  
C26  24926643.544   129799396.678       -1254.190          27.000  
C29  22014014.115   114632668.031        -744.381          42.000  
C30  25476909.303   132664790.036       -2368.060          32.000  
C32  26613226.147   138581935.457       -2898.154          29.000  
C35  22793759.009   118693001.804        1375.536          38.000  
E02                                                                                                                                  24733199.762    97058367.451       -1818.491          31.000  
E05                                                                                                                                  26871801.339   105450717.209        1837.390          28.000  
E25                                                                                                                                  27953740.028   109696334.936       -2471.115          33.000  
E36                                                                                                                                  24422407.019    95838758.639        -909.818          34.000  
G01  22204852.700   116687307.004        1947.930          26.000    22204863.493    87136655.168        1456.502          29.000  
G03  24730000.977   129957084.827        3616.518          36.000    24730021.362    97046012.041        2701.406          35.000  
G08  20489740.648   107674308.737         556.502          39.000    20489746.644    80406158.373         416.070          29.000  
G10  22797161.054   119799853.748       -2797.145          42.000    22797165.251    89460942.964       -2087.849          36.000  
G16  23725892.307   124680372.526       -3804.026          35.000  
G21  21153517.724   111162466.347          86.527          37.000  
G22  24199122.796   127167247.429        2025.116          33.000  
G27  20981411.071   110258037.864       -1680.151          42.000    20981417.667    82335587.449       -1254.240          38.000  
G32  23774954.242   124938178.381        1531.303          44.000    23774964.435    93298086.444        1144.337          31.000  
R05  22173568.458   118530431.980       -2532.245          42.000  
R06  20424292.956   108987892.032        1779.926          26.000  
R07  22775802.940   121920656.460        4088.574          34.000  
R11  21761326.547   116285931.517       -3290.299          35.000  
R12  21987543.041   117453509.052         258.899          36.000  
R20  22727208.981   121532600.296       -2314.558          28.000  
R21  20363407.806   108968708.920          18.877          41.000  
R22  21956471.051   117205134.054        1810.520          26.000  
> 2022  5  5 16  1  4.9998625  0 28
C19  22781523.280   118629294.439        2255.115          42.000  
C20  23142698.543   120510002.386        -520.973          43.000  
C26  24926882.478   129800650.592       -1253.673          29.000  
C29  22014158.315   114633412.041        -744.078          43.000  
C30  25477363.788   132667158.336       -2368.653          35.000  
C32  26613783.161   138584833.074       -2897.524          28.000  
C35  22793494.892   118691625.906        1375.885          39.000  
E02                                                                                                                                  24733661.442    97060185.547       -1817.218          25.000  
E05                                                                                                                                  26871332.763   105448879.616        1836.873          29.000  
E25                                                                                                                                  27954369.593   109698806.521       -2471.336          34.000  
E36                                                                                                                                  24422638.459    95839668.301        -910.154          34.000  
G01  22204483.056   116685358.718        1949.474          31.000    22204491.750    87135199.625        1453.819          27.000  
G03  24729309.355   129953468.396        3617.163          34.000    24729333.039    97043310.847        2701.515          35.000  
G08  20489635.421   107673751.916         556.285          39.000    20489640.517    80405742.293         415.327          30.000  
G10  22797693.185   119802650.343       -2797.212          43.000    22797697.383    89463031.430       -2088.198          37.000  
G16  23726617.205   124684176.975       -3804.926          36.000  
G21  21153502.735   111162378.992          85.719          38.000  
G22  24198737.862   127165222.308        2024.957          31.000  
G27  20981731.550   110259718.105       -1680.584          43.000    20981736.946    82336842.143       -1254.632          37.000  
G32  23774662.843   124936647.748        1530.010          40.000    23774673.336    93296942.834        1143.333          36.000  
R05  22174042.430   118532965.717       -2531.970          40.000  
R06  20423961.086   108986112.403        1779.191          28.000  
R07  22775037.570   121916559.831        4088.397          32.000  
R11  21761944.120   116289232.180       -3291.480          33.000  
R12  21987493.875   117453245.827         259.356          34.000  
R20  22727645.179   121534932.706       -2314.319          29.000  
R21  20363403.309   108968684.570          18.771          42.000  
R22  21956130.187   117203314.331        1807.844          23.000  
> 2022  5  5 16  1  5.9998623  0 27
C19  22781029.222   118626726.677        2255.825          41.000  
C20  23142738.715   120510210.271        -520.498          42.000  
C26  24927062.953   129801592.185       -1253.828          30.000  
C29  22014240.458   114633843.726        -744.014          42.000  
C30  25477759.214   132669214.561       -2368.600          37.000  
C32  26614276.620   138587417.804       -2896.327          26.000  
C35  22793172.615   118689937.645        1376.263          39.000  
E02                                                                                                                                  24734065.263    97061768.957       -1819.351          27.000  
E05                                                                                                                                  26870804.529   105446806.321        1837.779          30.000  
E25                                                                                                                                  27954939.198   109701042.635       -2471.794          34.000  
E36                                                                                                                                  24422810.540    95840343.153        -910.182          35.000  
G01  22204051.955   116683093.779        1949.697          30.000    22204060.948    87133510.095        1455.598          30.000  
G03  24728561.673   129949536.496        3616.757          34.000    24728584.757    97040374.219        2701.021          34.000  
G08  20489473.233   107672881.089         555.356          40.000    20489475.631    80405092.502         413.826          31.000  
G10  22798165.958   119805132.081       -2797.518          42.000    22798168.656    89464883.600       -2088.652          35.000  
G16  23727281.545   124687665.139       -3802.718          37.000  
G21  21153425.089   111161978.229          85.933          38.000  
G22  24198290.572   127162881.831        2025.676          35.000  
G27  20981989.971   110261082.749       -1680.355          44.000    20981995.966    82337860.605       -1254.115          36.000  
G32  23774313.285   124934801.809        1530.690          40.000    23774322.279    93295564.676        1142.034          35.000  
R05  22174460.041   118535197.759       -2532.323          41.000  
R06  20423568.658   108984013.258        1779.055          30.000  
R11  21762501.134   116292208.266       -3292.711          33.000  
R12  21987380.853   117452642.438         258.505          36.000  
R20  22728018.120   121536927.867       -2313.595          28.000  
R21  20363340.353   108968348.169          18.324          42.000  
R22  21955741.357   117201238.406        1806.215          24.000  
> 2022  5  5 16  1  6.9998620  0 28
C19  22780505.184   118624003.718        2253.664          40.000  
C20  23142748.009   120510262.615        -520.988          41.000  
C26  24927214.349   129802377.293       -1253.218          31.000  
C29  22014293.222   114634119.181        -744.026          41.000  
C30  25478124.961   132671114.974       -2368.490          40.000  
C32  26614743.097   138589846.042       -2898.328          27.000  
C35  22792817.061   118688092.956        1374.772          40.000  
E02                                                                                                                                  24734438.804    97063234.711       -1819.483          30.000  
E05                                                                                                                                  26870246.915   105444615.541        1838.724          30.000  
E25                                                                                                                                  27955479.724   109703161.534       -2471.959          34.000  
E36                                                                                                                                  24422952.642    95840899.818        -909.294          36.000  
G01                                                                  22203599.868    87131700.839        1455.919          29.000  
G03  24727784.611   129945447.151        3616.791          33.000    24727806.796    97037320.171        2700.944          35.000  
G08  20489275.370   107671852.087         555.882          40.000    20489280.166    80404324.847         415.524          31.000  
G10  22798605.454   119807456.309       -2797.740          42.000    22798611.750    89466619.538       -2088.749          36.000  
G16  23727917.405   124690996.039       -3803.508          38.000  
G21  21153319.262   111161419.225          84.993          38.000  
G22  24197814.502   127160383.492        2025.698          32.000  
G27  20982219.911   110262290.357       -1680.502          42.000    20982225.907    82338762.041       -1255.234          37.000  
G32  23773932.849   124932798.382        1530.802          40.000    23773941.843    93294069.873        1141.845          34.000  
R05  22174842.576   118537242.137       -2532.919          41.000  
R06  20423151.347   108981754.313        1778.829          28.000  
R07  22773363.828   121907599.6911       4088.647          28.000  
R11  21763026.970   116295018.335       -3292.893          33.000  
R12  21987243.248   117451907.419         258.294          37.000  
R20  22728360.184   121538756.285       -2313.248          30.000  
R21  20363247.717   108967851.976          18.479          42.000  
R22  21955319.249   117198985.251        1808.736          25.000  
> 2022  5  5 16  1  7.9998620  0 28
C19  22780072.584   118621748.901        2254.387          40.000  
C20  23142847.540   120510784.089        -522.335          42.000  
C26  24927454.482   129803630.747       -1253.483          30.000  
C29  22014437.422   114634863.158        -744.241          42.000  
C30  25478581.545   132673483.427       -2369.066          42.000  
C32  26615301.310   138592744.249       -2898.533          28.000  
C35  22792554.143   118686717.979        1375.604          38.000  
E02                                                                                                                                  24734902.283    97065052.749       -1817.454          26.000  
E05                                                                                                                                  26869778.040   105442776.950        1838.650          31.000  
E25                                                                                                                                  27956109.288   109705632.576       -2471.107          34.000  
E36                                                                                                                                  24423184.381    95841809.407        -910.245          36.000  
G01  22203219.731   116678721.8661       1948.970          34.000    22203229.324    87130245.589        1455.071          31.000  
G03  24727097.187   129941830.275        3616.653          34.000    24727118.472    97034618.811        2701.170          35.000  
G08  20489168.644   107671296.734         555.202          41.000    20489174.640    80403909.977         414.412          33.000  
G10  22799136.686   119810253.572       -2797.286          39.000    22799144.181    89468707.755       -2089.037          36.000  
G16  23728641.104   124694799.814       -3805.256          38.000  
G21  21153300.974   111161333.497          86.398          37.000  
G22  24197428.969   127158357.526        2025.804          34.000  
G27  20982541.289   110263970.691       -1680.644          42.000    20982545.486    82340017.019       -1255.249          36.000  
G32  23773639.952   124931268.237        1529.732          39.000    23773651.344    93292927.759        1142.100          33.000  
R05  22175310.852   118539745.867       -2534.019          42.000  
R06  20422818.577   108979975.639        1778.311          28.000  
R07  22772602.655   121903525.596        4089.111          27.000  
R11  21763642.144   116298305.635       -3293.111          32.000  
R12  21987194.382   117451646.559         257.291          36.000  
R20  22728790.686   121541058.513       -2313.327          30.000  
R21  20363240.822   108967815.817          17.950          42.000  
R22  21954978.385   117197165.854        1807.235          23.000  
> 2022  5  5 16  1  8.9998618  0 28
C19  22779580.025   118619182.831        2254.761          40.000  
C20  23142888.012   120510994.237        -521.723          43.000  
C26  24927636.456   129804571.756       -1253.257          29.000  
C29  22014521.364   114635295.305        -744.190          43.000  
C30  25478977.871   132675539.898       -2365.806          42.000  
C32  26615798.066   138595330.250       -2898.999          27.000  
C35  22792231.267   118685030.434        1374.155          40.000  
E02                                                                                                                                  24735305.804    97066635.381       -1818.167          33.000  
E05                                                                                                                                  26869249.805   105440703.094        1838.557          31.000  
E25                                                                                                                                  27956679.194   109707867.997       -2470.669          32.000  
E36                                                                                                                                  24423356.762    95842484.095        -909.972          36.000  
G01  22202789.229   116676458.099        1948.037          30.000    22202798.822    87128555.151        1454.780          27.000  
G03  24726349.804   129937898.375        3616.842          35.000    24726370.190    97031682.527        2700.907          37.000  
G08  20489004.357   107670426.923         554.916          41.000    20489008.854    80403259.669         414.041          30.000  
G10  22799610.358   119812736.681       -2797.798          39.000    22799617.253    89470562.453       -2090.119          36.000  
G16  23729304.245   124698289.113       -3803.541          39.000  
G21  21153225.727   111160932.343          84.155          38.000  
G22  24196984.376   127156016.765        2025.622          36.000  
G27  20982800.310   110265336.694       -1680.636          41.000    20982806.605    82341036.932       -1254.746          39.000  
G32  23773290.693   124929423.195        1530.787          38.000    23773300.586    93291550.655        1142.602          34.000  
R05  22175729.662   118541984.520       -2534.203          43.000  
R06  20422422.551   108977877.742        1777.704          25.000  
R07  22771779.125   121899117.431        4089.129          34.000  
R11  21764199.158   116301282.352       -3293.699          38.000  
R12  21987086.757   117451071.506         254.861          39.000  
R20  22729164.227   121543056.258       -2313.179          31.000  
R21  20363180.264   108967491.059          17.529          41.000  
R22  21954580.860   117195044.540        1807.348          26.000  
> 2022  5  5 16  1  9.9998618  0 26
C19  22779148.324   118616927.579        2254.569          40.000  
C20  23142988.742   120511516.033        -522.899          42.000  
C26  24927877.190   129805824.696       -1252.263          25.000  
C29  22014662.866   114636039.523        -744.952          42.000  
C30  25479432.656   132677907.300       -2369.039          38.000  
C35  22791965.051   118683655.130        1375.845          40.000  
E02                                                                                                                                  24735769.583    97068454.385       -1818.583          34.000  
E05                                                                                                                                  26868780.930   105438864.730        1838.733          33.000  
E25                                                                                                                                  27957308.458   109710338.723       -2471.040          33.000  
E36                                                                                                                                  24423588.801    95843393.834        -909.204          35.000  
G01  22202420.484   116674510.379        1947.146          27.000    22202428.579    87127100.385        1454.394          24.000  
G03  24725662.980   129934281.207        3617.253          37.000    24725681.567    97028981.445        2701.242          37.000  
G08  20488897.931   107669871.467         555.373          39.000    20488902.128    80402844.991         414.834          29.000  
G10  22800141.291   119815533.979       -2797.988          40.000    22800149.985    89472651.796       -2089.817          37.000  
G16  23730027.644   124702092.530       -3803.514          36.000  
G21  21153208.938   111160847.053          86.132          39.000  
G27  20983120.488   110267017.150       -1680.867          41.000    20983126.484    82342291.732       -1254.703          39.000  
G32  23772997.496   124927892.528        1529.895          39.000    23773009.188    93290408.303        1142.228          37.000  
R05  22176203.634   118544518.612       -2535.476          41.000  
R06  20422090.981   108976100.196        1777.004          29.000  
R07  22771013.455   121895018.817        4089.483          36.000  
R11  21764814.932   116304572.937       -3293.275          38.000  
R12  21987037.890   117450810.784         255.431          37.000  
R20  22729594.729   121545358.419       -2313.389          30.000  
R21  20363175.167   108967463.762          18.929          40.000  
R22  21954245.392   117193253.618        1807.380          25.000  
> 2022  5  5 16  1 10.9998615  0 27
C19  22778625.186   118614204.554        2255.165          41.000  
C20  23142999.235   120511570.191        -522.844          43.000  
C26  24928027.086   129806609.030       -1253.758          26.000  
C29  22014715.330   114636315.767        -743.865          42.000  
C30  25479797.503   132679806.744       -2367.317          42.000  
C35  22791612.195   118681811.552        1375.224          40.000  
E04                                                                                                                                  28366246.056   111315241.3741       -881.474          25.000  
E05                                                                                                                                  26868222.417   105436673.118        1839.207          31.000  
E09                                                                                                                                  26271650.115   103095546.1731        778.112          38.000  
E25                                                                                                                                  27957848.085   109712456.292       -2470.051          34.000  
E36                                                                                                                                  24423730.603    95843949.962        -908.603          35.000  
G01  22201962.401   116672090.769        1946.924          25.000    22201967.798    87125293.935        1453.960          29.000  
G03  24724879.922   129930191.441        3616.752          38.000    24724903.006    97025927.065        2701.518          36.000  
G08  20488702.766   107668844.319         554.492          39.000    20488706.664    80402078.069         413.116          30.000  
G10  22800585.283   119817859.309       -2797.503          41.000    22800593.078    89474388.293       -2088.760          37.000  
G16  23730660.805   124705423.274       -3803.161          38.000  
G21  21153100.713   111160288.894          85.830          37.000  
G22  24196124.572   127151491.7601       2026.485          36.000  
G27  20983350.429   110268225.332       -1680.763          42.000    20983357.024    82343193.825       -1255.726          39.000  
G32  23772616.760   124925890.017        1530.178          39.000    23772628.452    93288912.904        1142.386          40.000  
R05  22176584.370   118546553.629       -2535.086          41.000  
R06  20421664.676   108973843.298        1776.951          25.000  
R07  22770157.548   121890436.591        4089.837          36.000  
R11  21765350.361   116307433.702       -3293.747          37.000  
R20  22729941.889   121547214.728       -2313.150          28.000  
R21  20363076.535   108966936.247          18.366          42.000  
R22  21953819.987   117190982.831        1807.528          26.000  
> 2022  5  5 16  1 11.9998615  0 28
C19  22778192.286   118611950.465        2253.719          43.000  
C20  23143100.565   120512093.122        -523.423          43.000  
C26  24928267.819   129807862.565       -1253.717          29.000  
C29  22014859.830   114637059.709        -744.489          40.000  
C30  25480252.288   132682174.850       -2368.522          41.000  
C35  22791344.780   118680434.883        1375.456          39.000  
E04                                                                                                                                  28366470.901   111316122.755        -881.468          25.000  
E05                                                                                                                                  26867753.841   105434834.109        1838.714          33.000  
E09                                                                                                                                  26271452.552   103094768.344         778.263          37.000  
E25                                                                                                                                  27958477.349   109714925.865       -2470.032          34.000  
E36                                                                                                                                  24423962.343    95844858.704        -908.461          35.000  
G01  22201592.757   116670143.683        1947.241          31.000    22201596.954    87123839.743        1453.917          30.000  
G03  24724188.001   129926574.391        3616.924          36.000    24724214.682    97023226.110        2701.882          36.000  
G08  20488597.539   107668289.718         554.260          38.000    20488600.237    80401663.874         415.102          29.000  
G10  22801117.115   119820656.948       -2798.435          41.000    22801124.610    89476476.788       -2089.309          35.000  
G16  23731384.804   124709226.684       -3803.631          37.000  
G21  21153085.424   111160203.114          84.993          39.000  
G22  24195739.638   127149465.398        2026.031          30.000  
G27  20983670.008   110269906.353       -1682.046          42.000    20983675.704    82344449.682       -1255.409          36.000  
G32  23772325.661   124924360.417        1529.254          35.000    23772337.353    93287770.536        1142.593          40.000  
R05  22177061.640   118549104.930       -2535.540          41.000  
R06  20421332.206   108972066.702        1775.935          30.000  
R07  22769388.880   121886321.611        4089.613          31.000  
R11  21765965.236   116310719.566       -3293.804          34.000  
R12  21986860.413   117449862.6831        255.265          33.000  
R20  22730372.690   121549518.794       -2312.994          28.000  
R21  20363068.141   108966891.752          18.756          39.000  
R22  21953483.620   117189187.059        1811.656          21.000  
> 2022  5  5 16  1 12.9998612  0 28
C19  22777668.548   118609228.956        2252.762          40.000  
C20  23143109.858   120512148.096        -524.161          41.000  
C26  24928418.915   129808648.458       -1254.277          30.000  
C29  22014911.094   114637335.525        -745.295          41.000  
C30  25480617.436   132684074.467       -2369.104          44.000  
C35  22790992.524   118678591.642        1374.697          38.000  
E04                                                                                                                                  28366605.208   111316649.370        -879.932          23.000  
E05                                                                                                                                  26867195.028   105432641.714        1838.936          31.000  
E09                                                                                                                                  26271164.152   103093637.691         776.153          38.000  
E25                                                                                                                                  27959016.975   109717043.481       -2470.627          34.000  
E36                                                                                                                                  24424103.845    95845414.475        -909.160          35.000  
G01  22201132.576   116667723.847        1948.249          32.000    22201135.873    87122031.898        1454.684          30.000  
G03  24723409.740   129922485.312        3617.490          34.000    24723436.121    97020172.032        2701.707          33.000  
G08  20488401.175   107667262.780         553.814          41.000    20488405.672    80400896.387         414.370          32.000  
G10  22801562.007   119822982.913       -2799.783          41.000    22801567.403    89478214.106       -2090.983          37.000  
G16  23732017.966   124712558.311       -3804.594          38.000  
G21  21152981.995   111159645.386          85.421          38.000  
G22  24195265.067   127146966.610        2025.653          38.000  
G27  20983899.948   110271115.521       -1683.277          42.000    20983906.544    82345352.124       -1256.326          38.000  
G32  23771944.925   124922358.463        1528.922          41.000    23771956.017    93286275.560        1141.383          40.000  
R05  22177446.873   118551164.407       -2537.578          42.000  
R06  20420901.704   108969811.025        1774.889          28.000  
R07  22768534.472   121881748.496        4089.216          30.000  
R11  21766491.072   116313529.396       -3294.281          35.000  
R12  21986723.108   117449128.540         254.183          34.000  
R20  22730716.552   121551356.677       -2312.800          27.000  
R21  20362976.405   108966400.930          17.859          40.000  
R22  21953051.319   117186879.728        1812.039          23.000  
> 2022  5  5 16  1 13.9998612  0 29
C19  22777235.048   118606976.046        2253.011          41.000  
C20  23143210.888   120512672.367        -524.124          42.000  
C26  24928659.348   129809902.807       -1255.488          29.000  
C29  22015053.795   114638080.623        -744.828          41.000  
C30  25481073.720   132686443.030       -2367.561          45.000  
C32  26618400.565   138608887.1411      -2899.534          25.000  
C35  22790727.508   118677216.857        1374.380          38.000  
E04                                                                                                                                  28366829.453   111317531.532        -883.217          23.000  
E05                                                                                                                                  26866726.752   105430803.128        1837.997          33.000  
E09                                                                                                                                  26270966.888   103092861.414         777.147          37.000  
E25                                                                                                                                  27959647.139   109719514.676       -2471.494          33.000  
E36                                                                                                                                  24424335.884    95846323.674        -909.445          36.000  
G01  22200762.032   116665775.954        1946.707          32.000    22200765.630    87120577.181        1454.454          31.000  
G03  24722725.014   129918868.981        3616.409          34.000    24722747.798    97017471.039        2701.069          37.000  
G08  20488295.648   107666709.266         552.702          41.000    20488300.745    80400482.062         414.438          33.000  
G10  22802095.338   119825782.108       -2798.455          41.000    22802099.835    89480304.284       -2089.421          36.000  
G16  23732741.965   124716363.130       -3806.131          37.000  
G21  21152963.108   111159560.600          83.441          38.000  
G22  24194880.133   127144941.139        2025.767          39.000  
G27  20984220.127   110272798.273       -1682.182          41.000    20984226.422    82346608.773       -1256.230          39.000  
G32  23771654.126   124920829.818        1529.187          43.000    23771665.518    93285134.054        1141.970          39.000  
R05  22177912.451   118553652.785       -2537.351          41.000  
R06  20420568.934   108968036.740        1773.439          27.000  
R07  22767769.401   121877652.504        4088.550          32.000  
R11  21767105.047   116316810.315       -3295.966          35.000  
R12  21986674.542   117448869.774         252.989          36.000  
R20  22731146.155   121553654.661       -2313.116          24.000  
R21  20362977.304   108966405.486          17.729          39.000  
R22  21952717.950   117185099.614        1808.185          24.000  
> 2022  5  5 16  1 14.9998610  0 29
C19  22776744.588   118604411.263        2251.685          41.000  
C20  23143252.260   120512885.187        -525.677          42.000  
C26  24928841.922   129810846.198       -1256.268          30.000  
C29  22015138.337   114638513.678        -746.099          42.000  
C30  25481467.647   132688499.965       -2370.120          44.000  
C32  26618898.520   138611475.348       -2901.307          26.000  
C35  22790404.032   118675529.701        1376.126          39.000  
E04                                                                                                                                  28366993.739   111318179.363        -881.626          24.000  
E05                                                                                                                                  26866198.218   105428729.084        1838.181          32.000  
E09                                                                                                                                  26270709.666   103091850.130         775.910          39.000  
E25                                                                                                                                  27960216.745   109721749.986       -2469.838          33.000  
E36                                                                                                                                  24424507.965    95846997.862        -909.912          36.000  
G01  22200331.230   116663513.948        1946.924          32.000    22200335.428    87118888.248        1453.948          29.000  
G03  24721979.130   129914937.090        3616.690          36.000    24721999.816    97014534.611        2700.707          37.000  
G08  20488130.762   107665841.555         552.422          41.000    20488136.158    80399832.925         413.029          31.000  
G10  22802569.610   119828267.076       -2800.161          43.000    22802573.207    89482159.680       -2090.975          37.000  
G16  23733405.106   124719853.652       -3805.220          36.000  
G21  21152886.661   111159161.150          85.186          38.000  
G22  24194433.142   127142600.973        2023.611          37.000  
G27  20984482.145   110274166.089       -1683.342          41.000    20984486.342    82347630.190       -1257.474          35.000  
G32  23771305.468   124918986.719        1526.781          41.000    23771315.361    93283757.858        1140.183          40.000  
R05  22178324.066   118555852.906       -2538.114          34.000  
R06  20420175.307   108965943.480        1772.700          26.000  
R07  22766947.071   121873251.047        4087.976          30.000  
R11  21767659.363   116319772.068       -3296.490          37.000  
R12  21986566.916   117448294.151         251.793          34.000  
R20  22731518.497   121555645.668       -2314.122          28.000  
R21  20362913.149   108966061.712          17.206          38.000  
R22  21952318.326   117182966.511        1806.089          23.000  
> 2022  5  5 16  1 15.9998610  0 29
C19  22776310.788   118602158.619        2253.421          41.000  
C20  23143352.091   120513410.348        -525.463          42.000  
C26  24929082.655   129812103.259       -1258.653          26.000  
C29  22015283.137   114639259.458        -745.021          42.000  
C30  25481921.533   132690868.712       -2368.231          43.000  
C32  26619453.736   138614376.921       -2902.069          27.000  
C35  22790139.914   118674154.800        1374.503          39.000  
E04                                                                                                                                  28367218.283   111319060.895        -881.525          22.000  
E05                                                                                                                                  26865730.242   105426891.027        1838.477          33.000  
E09                                                                                                                                  26270512.103   103091074.001         776.076          40.000  
E25                                                                                                                                  27960846.309   109724220.407       -2470.261          32.000  
E36                                                                                                                                  24424739.405    95847907.917        -910.168          35.000  
G01  22199959.788   116661566.633        1946.564          30.000    22199964.584    87117436.340        1451.612          25.000  
G03  24721290.207   129911320.615        3617.174          36.000    24721311.792    97011834.115        2700.703          37.000  
G08  20488027.933   107665289.543         551.960          41.000    20488030.931    80399420.478         412.827          31.000  
G10  22803099.043   119831067.102       -2800.250          42.000    22803106.238    89484250.751       -2090.744          38.000  
G16  23734128.505   124723658.461       -3804.253          39.000  
G21  21152871.072   111159076.969          84.153          38.000  
G22  24194050.308   127140575.844        2025.958          39.000  
G27  20984801.724   110275849.169       -1682.652          40.000    20984805.322    82348887.757       -1257.388          35.000  
G32  23771012.271   124917459.067        1528.619          40.000    23771024.862    93282616.938        1141.247          39.000  
R05  22178796.838   118558380.435       -2538.827          36.000  
R06  20419846.734   108964171.082        1772.229          26.000  
R07  22766181.700   121869153.945        4088.277          35.000  
R11  21768274.837   116323061.627       -3296.079          39.000  
R12  21986518.350   117448035.056         249.594          38.000  
R20  22731951.697   121557961.715       -2313.855          28.000  
R21  20362912.849   108966060.634          17.354          40.000  
R22  21951980.160   117181161.056        1804.286          25.000  
> 2022  5  5 16  1 16.9998607  0 29
C19  22775789.149   118599438.544        2250.904          41.000  
C20  23143364.682   120513468.079        -526.464          42.000  
C26  24929233.451   129812893.108       -1258.137          25.000  
C29  22015335.600   114639536.435        -745.926          42.000  
C30  25482287.879   132692769.086       -2369.735          42.000  
C32  26619922.611   138616810.506       -2902.014          27.000  
C35  22789786.459   118672311.894        1374.642          40.000  
E04                                                                                                                                  28367352.890   111319590.398        -881.919          26.000  
E05                                                                                                                                  26865171.129   105424699.130        1838.571          34.000  
E09                                                                                                                                  26270223.403   103089944.826         775.722          38.000  
E25                                                                                                                                  27961385.636   109726337.314       -2472.012          31.000  
E36                                                                                                                                  24424880.907    95848464.933        -909.483          36.000  
G01  22199498.107   116659147.581        1945.979          28.000    22199504.703    87115631.715        1452.785          25.000  
G03  24720512.245   129907232.375        3614.979          36.000    24720533.831    97008780.651        2699.821          39.000  
G08  20487831.869   107664264.677         552.164          41.000    20487836.066    80398655.146         411.105          32.000  
G10  22803543.335   119833394.541       -2800.292          39.000    22803549.931    89485989.043       -2091.054          38.000  
G16  23734762.566   124726990.156       -3805.172          38.000  
G21  21152764.346   111158519.986          83.728          38.000  
G22  24193574.837   127138077.866        2024.977          38.000  
G27  20985031.065   110277060.047       -1684.674          41.000    20985036.162    82349791.752       -1257.191          39.000  
G32  23770632.733   124915458.657        1526.906          40.000    23770643.526    93281123.254        1139.806          40.000  
R05  22179185.070   118560455.972       -2539.491          41.000  
R06  20419419.230   108961919.154        1771.505          27.000  
R07  22765326.093   121864573.202        4087.888          36.000  
R11  21768810.866   116325925.336       -3298.344          38.000  
R12  21986379.246   117447292.147         248.882          36.000  
R20  22732293.161   121559787.655       -2313.763          30.000  
R21  20362822.611   108965577.878          16.437          40.000  
R22  21951551.157   117178871.247        1805.693          25.000  
> 2022  5  5 16  1 17.9998607  0 28
C19  22775356.849   118597187.109        2252.054          42.000  
C20  23143466.012   120513995.314        -528.218          44.000  
C26  24929475.383   129814151.504       -1258.421          26.000  
C29  22015478.302   114640282.751        -746.695          42.000  
C30  25482740.566   132695137.545       -2368.131          37.000  
C32  26620480.225   138619712.172       -2901.972          28.000  
C35  22789521.742   118670937.824        1375.501          40.000  
E04                                                                                                                                  28367577.435   111320472.222        -882.703          22.000  
E05                                                                                                                                  26864703.153   105422860.608        1839.167          34.000  
E09                                                                                                                                  26270026.139   103089169.741         774.093          40.000  
E25                                                                                                                                  27962015.200   109728808.234       -2470.400          31.000  
E36                                                                                                                                  24425112.347    95849374.257        -909.985          35.000  
G01  22199126.365   116657201.900        1946.051          27.000    22199134.459    87114178.468        1453.247          25.000  
G03  24719822.723   129903615.775        3619.127          37.000    24719845.807    97006080.405        2700.851          37.000  
G08  20487726.342   107663713.244         552.128          41.000    20487731.139    80398243.899         412.333          31.000  
G10  22804075.467   119836195.730       -2802.554          42.000    22804082.362    89488080.105       -2092.302          38.000  
G21  21152750.556   111158436.469          84.886          38.000  
G22  24193188.404   127136052.189        2025.099          36.000  
G27  20985351.843   110278744.410       -1684.299          41.000    20985357.239    82351049.378       -1257.333          37.000  
G32  23770342.834   124913932.125        1525.829          40.000    23770352.727    93279982.914        1139.650          39.000  
R05  22179668.935   118563041.792       -2542.356          43.000  
R06  20419086.760   108960148.186        1770.623          28.000  
R07  22764560.723   121860476.104        4088.326          35.000  
R11  21769425.740   116329211.454       -3296.194          38.000  
R12  21986333.678   117447048.587         248.318          37.000  
R20  22732723.963   121562091.655       -2314.579          29.000  
R21  20362817.515   108965549.920          15.679          38.000  
R22  21951210.593   117177053.276        1804.969          25.000  
> 2022  5  5 16  1 18.9998605  0 29
C19  22774863.990   118594623.967        2250.804          42.000  
C20  23143506.484   120514211.509        -527.836          42.000  
C26  24929658.856   129815097.721       -1258.273          25.000  
C29  22015561.344   114640717.800        -747.006          40.000  
C30  25483135.093   132697194.728       -2370.106          39.000  
C32  26620977.881   138622302.253       -2902.310          27.000  
C35  22789198.866   118669250.383        1374.621          39.000  
E04                                                                                                                                  28367742.021   111321120.763        -883.866          23.000  
E05                                                                                                                                  26864175.218   105420787.122        1837.706          35.000  
E09                                                                                                                                  26269768.917   103088160.618         773.584          38.000  
E25                                                                                                                                  27962584.805   109731043.318       -2470.240          30.000  
E36                                                                                                                                  24425285.027    95850049.424        -910.750          35.000  
G01  22198697.362   116654939.635        1947.052          28.000    22198703.657    87112488.712        1455.022          27.000  
G03  24719077.139   129899683.458        3616.451          36.000    24719097.225    97003144.063        2701.507          39.000  
G08  20487559.358   107662846.599         551.048          38.000    20487566.253    80397596.471         412.497          32.000  
G10  22804548.240   119838682.802       -2801.570          41.000    22804556.334    89489937.758       -2092.975          38.000  
G16  23736150.305   124734284.2121      -3804.733          36.000  
G21  21152675.907   111158036.516          83.871          39.000  
G22  24192743.812   127133712.712        2023.569          34.000  
G27  20985612.363   110280114.796       -1685.828          43.000    20985618.958    82352072.138       -1258.253          41.000  
G32  23769991.477   124912091.690        1525.924          40.000    23770002.570    93278608.757        1138.582          39.000  
R05  22180084.747   118565265.014       -2541.713          39.000  
R06  20418694.932   108958058.415        1768.987          30.000  
R07  22763735.094   121856056.676        4088.155          33.000  
R11  21769982.455   116332186.446       -3297.062          37.000  
R12  21986226.952   117446478.766         248.014          37.000  
R20  22733096.305   121564083.037       -2314.972          29.000  
R21  20362755.458   108965218.556          16.654          38.000  
R22  21950813.368   117174932.504        1807.226          22.000  
> 2022  5  5 16  1 19.9998605  0 28
C19  22774430.490   118592372.973        2250.804          41.000  
C20  23143607.514   120514739.437        -528.179          42.000  
C26  24929901.089   129816355.871       -1257.676          27.000  
C29  22015706.144   114641464.395        -746.705          42.000  
C30  25483591.976   132699564.167       -2370.654          39.000  
C32  26621535.195   138625205.411       -2903.558          28.000  
C35  22788932.051   118667876.099        1374.536          39.000  
E04                                                                                                                                  28367967.765   111322004.202        -884.242          23.000  
E05                                                                                                                                  26863706.643   105418949.158        1838.660          36.000  
E09                                                                                                                                  26269571.354   103087386.186         774.617          38.000  
E25                                                                                                                                  27963214.070   109733512.244       -2467.895          29.000  
E36                                                                                                                                  24425515.867    95850959.735        -909.812          34.000  
G01  22198327.718   116652992.953        1946.440          27.000    22198333.114    87111033.785        1454.748          28.000  
G03  24718388.816   129896066.856        3616.880          38.000    24718408.902    97000442.832        2701.380          39.000  
G08  20487455.630   107662296.059         550.219          41.000    20487460.126    80397184.370         411.954          31.000  
G10  22805074.675   119841484.695       -2801.295          41.000    22805089.065    89492030.281       -2093.212          38.000  
G21  21152660.918   111157953.286          83.809          38.000  
G22  24192358.579   127131689.186        2023.234          37.000  
G27  20985931.942   110281799.795       -1684.473          41.000    20985938.837    82353330.289       -1257.708          36.000  
G32  23769700.978   124910564.861        1526.370          40.000    23769712.071    93277468.939        1139.431          36.000  
R05  22180561.717   118567814.427       -2543.113          42.000  
R06  20418361.562   108956289.288        1769.379          28.000  
R07  22762966.726   121851943.455        4088.179          33.000  
R11  21770600.927   116335490.949       -3296.932          38.000  
R12  21986171.790   117446183.780         247.282          37.000  
R20  22733526.807   121566385.029       -2314.979          28.000  
R21  20362753.359   108965207.210          16.071          40.000  
R22  21950475.202   117173127.460        1805.076          25.000  
> 2022  5  5 16  1 20.9998602  0 28
C19  22773908.551   118589654.331        2249.636          43.000  
C20  23143619.805   120514800.020        -529.213          41.000  
C26  24930052.184   129817145.114       -1258.162          26.000  
C29  22015758.607   114641742.914        -747.195          41.000  
C30  25483955.924   132701466.695       -2371.355          35.000  
C32  26622002.271   138627639.981       -2902.572          27.000  
C35  22788580.094   118666032.722        1375.590          38.000  
E05                                                                                                                                  26863148.130   105416757.453        1837.778          35.000  
E09                                                                                                                                  26269283.853   103086259.368         773.288          39.000  
E25                                                                                                                                  27963753.396   109735628.388       -2470.860          33.000  
E36                                                                                                                                  24425657.069    95851516.280        -909.477          33.000  
G01  22197867.536   116650573.703        1946.748          28.000    22197872.633    87109225.684        1455.053          27.000  
G03  24717606.657   129891977.298        3617.575          36.000    24717630.640    96997389.420        2700.734          38.000  
G08  20487260.765   107661272.683         551.893          40.000    20487265.861    80396420.268         410.938          30.000  
G10                                                                  22805531.859    89493770.179       -2092.048          38.000  
G16  23737508.365   124741420.8071      -3805.577          35.000  
G21  21152554.791   111157396.420          84.900          40.000  
G22  24191883.108   127129193.191        2023.262          31.000  
G27  20986162.482   110283012.548       -1686.715          43.000    20986169.077    82354235.705       -1258.194          36.000  
G32  23769321.141   124908567.187        1524.065          42.000    23769331.634    93275977.127        1137.968          37.000  
R05  22180948.449   118569881.848       -2543.863          44.000  
R06  20417940.354   108954040.240        1769.971          29.000  
R07  22762111.418   121847364.742        4087.911          36.000  
R11  21771128.262   116338308.913       -3298.135          36.000  
R12  21986034.485   117445450.062         247.474          34.000  
R20  22733868.870   121568213.497       -2315.499          27.000  
R21  20362660.723   108964711.700          16.673          40.000  
R22  21950042.002   117170815.591        1806.869          23.000  
> 2022  5  5 16  1 21.9998602  0 28
C19  22773477.450   118587404.417        2249.856          39.000  
C20  23143722.634   120515330.692        -531.402          41.000  
C26  24930292.917   129818403.238       -1258.643          23.000  
C29  22015901.608   114642490.660        -748.085          41.000  
C30  25484413.108   132703838.074       -2370.767          38.000  
C32  26622559.885   138630543.874       -2903.950          27.000  
C35  22788316.277   118664658.087        1373.799          39.000  
E05                                                                                                                                  26862679.554   105414919.422        1838.017          34.000  
E09                                                                                                                                  26269086.290   103085486.502         772.673          39.000  
E25                                                                                                                                  27964382.961   109738098.642       -2470.112          32.000  
E36                                                                                                                                  24425887.910    95852426.530        -910.895          33.000  
G01  22197497.892   116648626.735        1946.514          26.000    22197502.389    87107771.637        1452.967          29.000  
G03  24716921.331   129888359.830        3618.047          35.000    24716942.017    96994688.599        2700.755          37.000  
G08  20487156.137   107660722.642         549.243          38.000    20487160.934    80396008.906         411.237          32.000  
G10                                                                  22806065.190    89495863.393       -2094.276          37.000  
G16  23738232.364   124745225.888       -3804.861          35.000  
G21  21152538.602   111157312.842          82.778          39.000  
G22  24191496.975   127127170.368        2023.005          30.000  
G27  20986483.860   110284698.690       -1686.799          41.000    20986489.556    82355494.556       -1259.376          39.000  
G32  23769031.542   124907043.150        1524.308          39.000    23769041.135    93274839.234        1138.880          38.000  
R05  22181426.918   118572439.974       -2545.992          44.000  
R06  20417606.085   108952272.351        1766.071          27.000  
R07  22761351.444   121843296.653        4087.799          37.000  
R11  21771742.536   116341591.936       -3297.988          36.000  
R12  21985988.617   117445205.649         246.450          37.000  
R20  22734302.670   121570533.516       -2316.173          28.000  
R21  20362658.025   108964697.188          14.498          41.000  
R22  21949698.740   117168983.329        1805.061          24.000  
> 2022  5  5 16  1 22.9998600  0 27
C19  22772985.190   118584842.695        2249.125          41.000  
C20  23143765.804   120515550.581        -531.927          42.000  
C26  24930474.891   129819349.155       -1257.026          28.000  
C29  22015984.051   114642927.043        -748.921          41.000  
C30  25484807.335   132705898.401       -2372.443          35.000  
C35  22787992.801   118662970.886        1374.718          37.000  
E05                                                                                                                                  26862151.320   105412846.583        1837.276          36.000  
E09                                                                                                                                  26268829.368   103084479.405         772.302          38.000  
E25                                                                                                                                  27964952.566   109740333.708       -2471.174          33.000  
E36                                                                                                                                  24426060.290    95853102.192        -911.259          33.000  
G01  22197066.491   116646365.047        1946.889          29.000    22197071.587    87106082.619        1452.513          28.000  
G03  24716170.052   129884426.749        3617.523          37.000    24716193.435    96991751.446        2702.020          40.000  
G08  20486988.853   107659858.126         549.920          39.000    20486997.247    80395363.509         409.868          32.000  
G10                                                                  22806538.262    89497723.177       -2093.734          35.000  
G16  23738897.903   124748715.830       -3805.093          38.000  
G21  21152460.057   111156914.795          82.967          37.000  
G22  24191051.484   127124833.683        2020.761          28.000  
G27  20986746.178   110286071.482       -1687.923          42.000    20986751.574    82356519.029       -1259.784          37.000  
G32  23768682.883   124905205.373        1522.347          41.000    23768691.277    93273466.486        1136.468          38.000  
R05  22181844.229   118574670.510       -2546.796          43.000  
R06  20417215.756   108950186.506        1765.412          29.000  
R07  22760532.711   121838914.091        4086.639          38.000  
R11  21772297.752   116344558.373       -3297.741          37.000  
R12  21985882.790   117444639.921         246.240          35.000  
R20  22734673.813   121572518.024       -2317.843          28.000  
R21  20362588.773   108964326.690          15.798          39.000  
R22  21949303.314   117166872.466        1807.354          19.000  
> 2022  5  5 16  1 23.9998597  0 27
C19  22772463.851   118582125.181        2249.243          42.000  
C20  23143776.597   120515612.934        -531.037          44.000  
C26  24930625.987   129820138.176       -1258.456          28.000  
C29  22016039.813   114643206.139        -747.576          40.000  
C30  25485171.883   132707801.976       -2371.270          35.000  
C35  22787639.645   118661128.227        1373.222          39.000  
E05                                                                                                                                  26861593.106   105410656.184        1837.695          37.000  
E09                                                                                                                                  26268542.766   103083352.898         774.151          37.000  
E25                                                                                                                                  27965492.792   109742451.986       -2471.395          32.000  
E36                                                                                                                                  24426203.591    95853660.762        -911.029          34.000  
G01  22196603.611   116643946.066        1945.704          23.000    22196611.406    87104276.527        1453.810          28.000  
G03  24715392.090   129880338.220        3616.764          37.000    24715415.174    96988697.790        2700.409          40.000  
G08  20486797.285   107658836.070         548.702          38.000    20486802.981    80394600.283         410.587          32.000  
G10  22806976.559   119851436.5551      -2804.284          41.000    22806981.355    89499463.823       -2093.913          35.000  
G16  23739531.664   124752048.362       -3805.304          37.000  
G21  21152354.829   111156359.479          82.337          37.000  
G22  24190576.013   127122338.318        2023.664          29.000  
G27  20986977.918   110287285.778       -1686.985          43.000    20986982.414    82357425.732       -1259.915          37.000  
G32  23768302.147   124903208.320        1524.429          43.000    23768310.841    93271975.567        1138.019          33.000  
R05  22182223.766   118576699.070       -2545.280          43.000  
R06  20416797.545   108947941.751        1764.418          31.000  
R07  22759682.799   121834364.016        4088.474          40.000  
R11  21772828.684   116347395.349       -3300.029          37.000  
R12  21985746.984   117443914.694         244.779          37.000  
R20  22735019.474   121574367.113       -2316.054          27.000  
R21  20362498.835   108963845.368          15.339          39.000  
R22  21948866.216   117164538.757        1808.011          23.000  
> 2022  5  5 16  1 24.9998597  0 27
C19  22772030.651   118579875.407        2248.721          41.000  
C20  23143877.927   120516143.981        -531.866          43.000  
C26  24930867.619   129821397.481       -1260.160          26.000  
C29  22016184.013   114643953.633        -748.198          42.000  
C30  25485626.068   132710172.764       -2370.391          36.000  
C35  22787374.929   118659755.239        1372.743          38.000  
E05                                                                                                                                  26861124.530   105408818.080        1837.114          38.000  
E09                                                                                                                                  26268345.203   103082579.572         772.961          34.000  
E25                                                                                                                                  27966122.057   109744922.207       -2469.481          30.000  
E36                                                                                                                                  24426436.530    95854571.361        -910.673          35.000  
G01  22196232.768   116642000.770        1945.026          27.000    22196240.862    87102821.878        1454.220          26.000  
G03  24714704.966   129876721.158        3616.358          37.000    24714726.851    96985997.097        2701.100          40.000  
G08  20486693.257   107658287.040         549.855          40.000    20486698.354    80394190.452         409.329          31.000  
G10  22807511.089   119854240.361       -2804.071          41.000    22807514.986    89501557.674       -2093.991          36.000  
G16  23740254.764   124755852.936       -3804.283          36.000  
G21  21152340.140   111156277.126          82.921          39.000  
G22  24190191.079   127120314.213        2024.186          36.000  
G27  20987298.396   110288972.352       -1687.767          42.000    20987303.792    82358684.706       -1259.435          39.000  
G32  23768012.847   124901683.828        1523.414          44.000    23768018.843    93270838.506        1136.615          27.000  
R05  22182703.434   118579263.271       -2547.493          40.000  
R06  20416467.174   108946177.410        1764.446          28.000  
R07  22758917.729   121830268.800        4087.655          40.000  
R11  21773444.758   116350687.737       -3300.783          38.000  
R12  21985704.713   117443688.658         243.165          35.000  
R20  22735455.672   121576698.906       -2315.627          28.000  
R21  20362499.735   108963850.236          15.799          40.000  
R22  21948531.948   117162754.101        1807.436          25.000  
> 2022  5  5 16  1 25.9998595  0 28
C19  22771540.191   118577314.848        2247.888          42.000  
C20  23143919.598   120516363.832        -533.242          44.000  
C26  24931051.692   129822345.955       -1261.290          28.000  
C29  22016267.655   114644389.545        -748.343          41.000  
C30  25486021.195   132712230.848       -2370.987          36.000  
C32  26624578.088   138641064.5181      -2901.876          24.000  
C35  22787050.253   118658068.080        1375.760          39.000  
E05                                                                                                                                  26860596.296   105406745.759        1837.412          36.000  
E09                                                                                                                                  26268087.981   103081571.723         771.591          36.000  
E25                                                                                                                                  27966691.362   109747156.279       -2469.432          32.000  
E36                                                                                                                                  24426608.311    95855246.593        -910.922          34.000  
G01  22195804.065   116639740.566        1945.469          31.000    22195810.960    87101133.232        1453.308          27.000  
G03  24713957.883   129872789.841        3617.590          34.000    24713978.569    96983061.209        2701.555          39.000  
G08  20486528.671   107657422.343         549.004          39.000    20486533.168    80393546.309         409.215          30.000  
G10  22807982.662   119856729.285       -2805.407          40.000    22807988.658    89503415.850       -2094.053          36.000  
G16  23740918.204   124759342.540       -3805.132          31.000  
G21  21152263.393   111155878.599          83.734          39.000  
G22  24189744.988   127117975.550        2022.760          37.000  
G27  20987557.716   110290345.255       -1688.322          42.000    20987565.511    82359709.922       -1261.254          38.000  
G32  23767662.090   124899846.058        1521.232          46.000    23767668.685    93269465.326        1138.262          28.000  
R05  22183120.445   118581492.943       -2548.456          39.000  
R06  20416075.645   108944093.606        1763.317          29.000  
R07  22758096.298   121825872.158        4086.211          40.000  
R11  21774010.766   116353712.170       -3298.796          36.000  
R12  21985603.383   117443147.687         242.471          35.000  
R20  22735823.217   121578664.429       -2315.531          29.000  
R21  20362437.978   108963519.361          15.136          39.000  
R22  21948133.823   117160629.648        1807.326          21.000  
> 2022  5  5 16  1 26.9998595  0 26
C19  22771109.389   118575066.949        2247.879          41.000  
C20  23144019.729   120516897.199        -532.035          43.000  
C26  24931293.625   129823607.079       -1260.919          27.000  
C29  22016411.256   114645138.198        -747.486          43.000  
C30  25486476.280   132714602.191       -2371.165          35.000  
C35  22786786.436   118656693.648        1372.515          39.000  
E05                                                                                                                                  26860127.721   105404907.972        1838.809          34.000  
E09                                                                                                                                  26267891.917   103080800.085         771.904          37.000  
E25                                                                                                                                  27967320.927   109749626.209       -2470.471          32.000  
E36                                                                                                                                  24426840.950    95856157.562        -910.990          36.000  
G01  22195432.922   116637794.895        1944.428          28.000    22195440.716    87099679.851        1452.579          28.000  
G03  24713269.559   129869172.954        3615.398          35.000    24713290.845    96980360.577        2698.308          38.000  
G08  20486426.742   107656873.824         547.687          40.000    20486428.241    80393136.529         409.999          31.000  
G10  22808517.192   119859534.743       -2803.607          41.000    22808523.188    89505510.153       -2094.642          37.000  
G16  23741642.203   124763148.044       -3806.899          39.000  
G21  21152247.504   111155795.662          80.184          37.000  
G22  24189360.954   127115952.446        2023.487          34.000  
G27  20987879.094   110292033.851       -1688.312          41.000    20987886.588    82360970.897       -1259.905          37.000  
G32  23767373.390   124898323.945        1524.944          42.000    23767379.685    93268329.170        1136.685          30.000  
R05  22183597.115   118584041.022       -2549.919          42.000  
R06  20415745.274   108942330.762        1762.733          27.000  
R07  22757334.525   121821794.360        4087.010          38.000  
R11  21774626.540   116357002.353       -3302.394          38.000  
R12  21985561.413   117442923.202         241.900          39.000  
R20  22736257.317   121580986.406       -2316.006          27.000  
R21  20362437.678   108963518.112          14.028          40.000  
> 2022  5  5 16  1 27.9998595  0 27
C19  22770676.489   118572819.069        2247.174          41.000  
C20  23144123.757   120517429.612        -532.779          42.000  
C26  24931537.056   129824867.966       -1259.952          25.000  
C29  22016553.957   114645885.771        -748.399          42.000  
C30  25486931.365   132716973.315       -2371.517          35.000  
C35  22786523.518   118655320.217        1373.866          38.000  
E05                                                                                                                                  26859659.145   105403070.142        1837.711          35.000  
E09                                                                                                                                  26267694.953   103080028.083         771.303          36.000  
E25                                                                                                                                  27967950.191   109752097.215       -2471.254          32.000  
E36                                                                                                                                  24427073.589    95857068.294        -910.011          35.000  
G01  22195061.179   116635850.473        1944.240          30.000    22195071.672    87098229.184        1451.973          28.000  
G03  24712582.435   129865557.101        3616.133          34.000    24712602.521    96977660.943        2700.043          38.000  
G08  20486318.517   107656325.822         547.418          39.000    20486324.213    80392726.710         409.568          33.000  
G10  22809051.122   119862339.365       -2805.352          41.000    22809057.118    89507604.152       -2094.435          37.000  
G16  23742366.502   124766954.314       -3806.191          31.000  
G21  21152233.114   111155714.306          82.407          38.000  
G22  24188976.020   127113929.100        2022.891          37.000  
G27  20988200.771   110293721.648       -1688.816          42.000    20988207.666    82362231.208       -1261.324          38.000  
G32  23767082.591   124896800.746        1522.063          44.000    23767090.685    93267192.191        1137.297          33.000  
R05  22184071.987   118586579.455       -2549.280          35.000  
R06  20415413.403   108940568.006        1762.247          30.000  
R07  22756565.258   121817675.847        4086.981          40.000  
R11  21775241.114   116360286.574       -3302.018          35.000  
R12  21985520.041   117442702.339         240.466          34.000  
R20  22736688.718   121583292.940       -2315.611          27.000  
R21  20362431.382   108963483.929          14.818          39.000  
R22  21947454.194   117157001.6151       1804.126          23.000  
> 2022  5  5 16  1 28.9998595  0 28
C19  22770245.687   118570572.142        2247.303          40.000  
C20  23144226.585   120517963.361        -533.008          42.000  
C26  24931781.087   129826128.134       -1261.280          21.000  
C29  22016698.457   114646634.489        -747.553          42.000  
C30  25487387.049   132719344.705       -2371.048          34.000  
C32  26626253.029   138649778.1591      -2904.993          26.000  
C35  22786259.701   118653946.978        1373.259          40.000  
E05                                                                                                                                  26859191.169   105401232.550        1837.796          35.000  
E09                                                                                                                                  26267498.289   103079256.978         771.655          34.000  
E25                                                                                                                                  27968579.455   109754567.433       -2468.511          29.000  
E36                                                                                                                                  24427305.628    95857978.527        -911.019          35.000  
G01  22194691.535   116633906.570        1942.705          29.000    22194701.728    87096777.366        1451.276          25.000  
G03  24711895.611   129861941.400        3615.582          36.000    24711914.498    96974960.880        2699.475          39.000  
G08  20486214.789   107655778.628         546.701          40.000    20486220.185    80392317.826         408.224          32.000  
G10  22809586.552   119865144.977       -2804.638          42.000    22809589.850    89509698.596       -2095.492          38.000  
G16  23743089.901   124770760.691       -3806.475          38.000  
G21  21152218.424   111155633.072          80.189          38.000  
G22  24188591.387   127111906.257        2022.955          36.000  
G27  20988523.348   110295410.427       -1687.911          42.000    20988529.343    82363492.563       -1260.490          38.000  
G32  23766792.992   124895278.347        1523.577          42.000    23766801.386    93266055.236        1136.972          30.000  
R05  22184547.158   118589119.386       -2548.832          41.000  
R06  20415084.831   108938806.156        1761.727          28.000  
R07  22755800.487   121813581.981        4087.145          40.000  
R11  21775855.089   116363567.954       -3303.092          40.000  
R12  21985477.171   117442473.437         238.344          38.000  
R20  22737125.216   121585627.451       -2315.135          24.000  
R21  20362422.089   108963434.587          13.801          40.000  
R22  21947113.030   117155180.555        1806.149          27.000  
> 2022  5  5 16  1 29.9998592  0 28
C19  22769723.149   118567856.359        2246.627          41.000  
C20  23144240.076   120518029.445        -536.176          42.000  
C26  24931933.082   129826920.210       -1259.684          20.000  
C29  22016754.218   114646915.012        -749.807          42.000  
C30  25487752.496   132721247.492       -2371.451          37.000  
C32  26626723.103   138652214.014       -2905.538          29.000  
C35  22785905.646   118652104.408        1375.761          38.000  
E05                                                                                                                                  26858632.955   105399041.613        1837.642          36.000  
E09                                                                                                                                  26267211.388   103078132.240         771.437          35.000  
E25                                                                                                                                  27969118.482   109756683.055       -2467.744          32.000  
E36                                                                                                                                  24427447.430    95858536.787        -912.091          34.000  
G01  22194230.754   116631490.669        1944.647          27.000    22194241.247    87094973.271        1451.179          24.000  
G03  24711116.750   129857852.710        3617.260          36.000    24711136.236    96971906.876        2701.778          38.000  
G08  20486021.422   107654758.057         547.215          38.000    20486025.919    80391556.553         408.323          32.000  
G10  22810030.544   119867478.897       -2808.255          42.000    22810032.943    89511441.511       -2096.421          34.000  
G16  23743724.562   124774093.953       -3805.704          36.000  
G21  21152112.597   111155078.334          83.783          38.000  
G22  24188119.214   127109411.617        2020.217          38.000  
G27  20988755.087   110296626.712       -1690.195          43.000    20988760.483    82364401.252       -1262.395          35.000  
G32  23766413.754   124893284.070        1519.470          43.000    23766421.849    93264565.950        1134.817          34.000  
R05  22184930.892   118591170.018       -2550.813          34.000  
R06  20414664.822   108936564.713        1760.891          31.000  
R07  22754949.676   121809027.732        4087.148          40.000  
R11  21776379.426   116366369.319       -3302.047          36.000  
R12  21985343.164   117441757.409         239.161          35.000  
R20  22737466.380   121587451.112       -2316.301          26.000  
R21  20362327.954   108962930.725          13.476          37.000  
R22  21946687.025   117152905.787        1807.883          24.000  
> 2022  5  5 16  1 30.9998592  0 28
C19  22769291.148   118565609.384        2247.886          40.000  
C20  23144342.605   120518565.067        -534.172          40.000  
C26  24932175.614   129828180.157       -1260.944          25.000  
C29  22016897.219   114647664.808        -749.230          43.000  
C30  25488207.281   132723619.977       -2373.005          34.000  
C32  26627281.617   138655119.787       -2906.229          25.000  
C35  22785642.728   118650730.537        1370.563          39.000  
E05                                                                                                                                  26858164.979   105397204.346        1837.541          36.000  
E09                                                                                                                                  26267015.623   103077361.590         770.671          34.000  
E25                                                                                                                                  27969747.747   109759151.424       -2469.679          27.000  
E36                                                                                                                                  24427680.069    95859448.892        -912.077          35.000  
G01  22193861.409   116629545.807        1944.197          26.000    22193870.103    87093521.928        1449.105          23.000  
G03  24710425.428   129854236.324        3615.196          37.000    24710448.213    96969206.147        2699.636          41.000  
G08  20485919.493   107654212.297         544.704          39.000    20485922.491    80391148.024         408.030          32.000  
G10  22810563.875   119870286.328       -2805.365          43.000    22810568.372    89513538.381       -2096.730          36.000  
G16  23744448.560   124777899.731       -3806.105          39.000  
G21  21152095.809   111154996.803          78.517          38.000  
G22  24187733.680   127107390.037        2024.350          36.000  
G27  20989076.765   110298316.857       -1689.282          41.000    20989081.561    82365663.651       -1262.446          37.000  
G32  23766124.454   124891763.698        1524.340          40.000    23766132.849    93263430.438        1136.087          31.000  
R05  22185407.562   118593718.354       -2551.827          40.000  
R06  20414336.249   108934804.601        1759.400          28.000  
R07  22754182.507   121804920.835        4087.748          41.000  
R11  21776999.397   116369682.741       -3304.844          40.000  
R12  21985301.193   117441533.368         237.450          37.000  
R20  22737893.884   121589737.426       -2316.527          16.000  
R21  20362328.553   108962933.408          12.462          40.000  
R22  21946349.458   117151104.703        1807.356          25.000  
> 2022  5  5 16  1 31.9998589  0 27
C19  22768770.708   118562893.493        2246.361          42.000  
C20  23144355.496   120518630.983        -534.321          42.000  
C26  24932331.806   129828973.961       -1262.052          20.000  
C29  22016948.784   114647945.194        -748.370          41.000  
C30  25488572.728   132725523.016       -2371.417          36.000  
C35  22785287.174   118648890.322        1373.348          39.000  
E05                                                                                                                                  26857606.166   105395012.695        1838.578          39.000  
E09                                                                                                                                  26266728.123   103076235.627         771.869          32.000  
E25                                                                                                                                  27970287.073   109761268.106       -2470.640          29.000  
E36                                                                                                                                  24427822.171    95860006.950        -910.648          35.000  
G01  22193401.528   116627129.987        1943.112          26.000    22193411.121    87091718.830        1450.209          21.000  
G03  24709646.867   129850147.613        3614.950          37.000    24709669.951    96966153.021        2699.252          41.000  
G08  20485724.328   107653193.280         547.179          39.000    20485727.926    80390386.605         408.594          33.000  
G10  22811006.069   119872619.624       -2805.790          43.000    22811012.365    89515281.742       -2095.826          35.000  
G16  23745084.120   124781232.610       -3806.562          36.000  
G21  21151990.582   111154444.035          80.614          38.000  
G22  24187257.010   127104893.778        2023.317          37.000  
G27  20989307.605   110299532.860       -1689.048          42.000    20989313.301    82366572.668       -1262.207          39.000  
G32  23765744.318   124889767.918        1522.512          43.000    23765752.412    93261940.052        1136.952          30.000  
R05  22185794.294   118595785.319       -2551.198          38.000  
R06  20413917.439   108932564.822        1759.564          28.000  
R07  22753330.497   121800360.021        4086.778          40.000  
R11  21777527.631   116372505.184       -3304.464          37.000  
R12  21985168.385   117440824.241         236.031          33.000  
R20  22738243.741   121591608.507       -2315.451          25.000  
R21  20362241.913   108962470.480          14.576          40.000  
R22  21945921.954   117148821.811        1803.714          24.000  
> 2022  5  5 16  1 32.9998589  0 27
C19  22768338.707   118560647.000        2247.045          41.000  
C20  23144458.325   120519165.872        -535.021          42.000  
C26  24932573.738   129830236.706       -1263.129          25.000  
C29  22017094.782   114648693.680        -748.416          43.000  
C30  25489028.713   132727894.236       -2370.666          33.000  
C35  22785026.654   118647517.030        1372.669          40.000  
E05                                                                                                                                  26857137.591   105393173.913        1838.666          37.000  
E09                                                                                                                                  26266531.459   103075463.864         771.851          35.000  
E25                                                                                                                                  27970916.937   109763737.701       -2468.719          28.000  
E36                                                                                                                                  24428053.610    95860916.599        -909.772          34.000  
G01  22193030.984   116625187.501        1942.250          29.000    22193041.777    87090268.684        1449.933          27.000  
G03  24708959.443   129846532.695        3614.719          38.000    24708981.928    96963453.866        2699.865          40.000  
G08  20485620.600   107652646.917         545.275          40.000    20485623.598    80389978.456         408.054          31.000  
G10  22811539.400   119875425.728       -2805.941          41.000    22811546.595    89517376.864       -2095.088          36.000  
G16  23745810.517   124785038.716       -3805.721          40.000  
G21  21151975.592   111154363.956          79.219          38.000  
G22  24186872.676   127102870.534        2023.465          36.000  
G27  20989629.582   110301222.301       -1689.225          42.000    20989635.278    82367834.627       -1262.342          39.000  
G32  23765452.919   124888245.598        1522.802          43.000    23765462.513    93260802.926        1136.870          31.000  
R05  22186279.358   118598378.567       -2550.596          40.000  
R06  20413588.567   108930804.892        1759.662          25.000  
R07  22752570.823   121796293.040        4087.836          39.000  
R11  21778153.298   116375848.779       -3305.683          39.000  
R12  21985122.217   117440577.354         235.242          36.000  
R20  22738679.939   121593940.469       -2314.470          23.000  
R21  20362235.917   108962437.947          13.655          39.000  
R22  21945585.587   117147026.477        1805.556          25.000  
> 2022  5  5 16  1 33.9998587  0 28
C19  22767847.047   118558088.404        2245.686          41.000  
C20  23144500.296   120519389.859        -537.150          44.000  
C26  24932756.312   129831187.998       -1263.632          27.000  
C29  22017176.626   114649131.382        -750.624          41.000  
C30  25489424.139   132729953.068       -2371.935          36.000  
C32  26628803.363   138663056.5931      -2906.149          25.000  
C35  22784703.778   118645831.143        1374.550          41.000  
E05                                                                                                                                  26856609.956   105391100.747        1836.802          38.000  
E09                                                                                                                                  26266275.136   103074457.073         771.156          33.000  
E25                                                                                                                                  27971486.543   109765970.691       -2468.219          29.000  
E36                                                                                                                                  24428225.391    95861590.834        -909.870          35.000  
G01  22192602.581   116622929.708        1943.357          29.000    22192612.474    87088582.283        1453.053          26.000  
G03  24708212.361   129842601.369        3616.757          38.000    24708233.646    96960518.164        2700.734          40.000  
G08  20485456.613   107651786.003         546.241          40.000    20485459.911    80389334.676         408.793          30.000  
G10  22812015.470   119877918.239       -2807.881          42.000    22812020.867    89519236.963       -2095.894          36.000  
G16  23746476.356   124788529.859       -3806.570          36.000  
G21  21151902.443   111153967.584          82.104          38.000  
G22  24186427.784   127100532.050        2022.118          35.000  
G27  20989891.301   110302597.535       -1690.768          41.000    20989897.896    82368862.284       -1263.204          40.000  
G32  23765103.661   124886409.976        1519.024          42.000    23765114.154    93259431.073        1135.258          32.000  
R05  22186696.670   118600609.405       -2554.515          36.000  
R06  20413202.734   108928725.547        1758.813          25.000  
R07  22751746.694   121791881.747        4086.455          37.000  
R11  21778710.313   116378825.107       -3302.530          39.000  
R12  21985015.790   117440008.697         235.601          37.000  
R20  22739053.781   121595939.998       -2316.287          26.000  
R21  20362175.659   108962115.564          13.377          41.000  
R22  21945193.758   117144934.724        1807.189          23.000  
> 2022  5  5 16  1 34.9998587  0 28
C19  22767416.845   118555842.682        2246.835          40.000  
C20  23144603.424   120519926.675        -535.825          42.000  
C26  24932997.045   129832451.731       -1265.021          25.000  
C29  22017320.526   114649881.185        -748.336          41.000  
C30  25489879.823   132732324.879       -2370.916          35.000  
C32  26629361.277   138665962.978       -2906.729          26.000  
C35  22784439.361   118644458.390        1371.652          40.000  
E05                                                                                                                                  26856141.380   105389263.083        1838.806          39.000  
E09                                                                                                                                  26266079.072   103073685.849         770.917          31.000  
E25                                                                                                                                  27972114.908   109768438.357       -2468.166          28.000  
E36                                                                                                                                  24428457.731    95862501.352        -910.312          36.000  
G01  22192233.836   116620986.497        1943.747          31.000    22192242.530    87087129.257        1454.084          23.000  
G03  24707522.538   129838986.173        3615.614          38.000    24707545.922    96957818.402        2699.791          40.000  
G08  20485354.384   107651241.042         545.117          41.000    20485356.483    80388926.519         407.119          32.000  
G10  22812551.199   119880725.489       -2806.289          42.000    22812554.797    89521333.296       -2096.867          36.000  
G16  23747199.156   124792335.658       -3803.937          40.000  
G21  21151885.055   111153887.262          80.204          38.000  
G22  24186042.851   127098509.748        2022.787          39.000  
G27  20990213.278   110304288.338       -1690.168          41.000    20990219.274    82370124.780       -1262.459          39.000  
G32  23764815.860   124884888.886        1521.766          42.000    23764825.154    93258294.975        1136.661          29.000  
R05  22187177.537   118603179.921       -2552.937          37.000  
R06  20412878.358   108926967.557        1757.783          27.000  
R07  22750980.124   121787778.512        4088.098          39.000  
R11  21779325.787   116382113.683       -3305.777          40.000  
R12  21984972.021   117439774.690         232.037          36.000  
R20  22739491.178   121598279.214       -2315.646          26.000  
R21  20362174.160   108962107.185          13.810          41.000  
R22  21944861.289   117143160.570        1807.534          26.000  
> 2022  5  5 16  1 35.9998584  0 28
C19  22766895.806   118553128.485        2245.007          42.000  
C20  23144617.814   120519994.982        -537.730          43.000  
C26  24933151.438   129833250.405       -1266.312          20.000  
C29  22017374.789   114650161.763        -750.036          41.000  
C30  25490246.170   132734227.356       -2370.969          38.000  
C32  26629830.152   138668402.062       -2907.138          29.000  
C35  22784083.507   118642616.492        1373.726          39.000  
E05                                                                                                                                  26855582.567   105387071.824        1837.498          38.000  
E09                                                                                                                                  26265792.770   103072562.182         770.915          35.000  
E25                                                                                                                                  27972654.534   109770554.078       -2469.633          29.000  
E36                                                                                                                                  24428600.132    95863058.729        -910.560          34.000  
G01  22191774.854   116618570.247        1942.983          28.000    22191783.548    87085321.612        1453.955          22.000  
G03  24706746.076   129834897.873        3615.274          37.000    24706767.661    96954765.697        2700.119          40.000  
G08  20485159.219   107650222.586         545.468          38.000    20485162.517    80388166.105         408.013          31.000  
G10  22812994.892   119883059.994       -2808.259          41.000    22812999.089    89523076.941       -2096.461          35.000  
G16  23747834.416   124795668.833       -3806.895          38.000  
G21  21151780.427   111153333.491          80.626          39.000  
G22  24185568.579   127096014.449        2022.423          39.000  
G27  20990444.418   110305506.418       -1691.609          43.000    20990451.013    82371034.508       -1262.671          38.000  
G32  23764436.923   124882895.671        1519.760          45.000    23764445.317    93256806.677        1134.009          29.000  
R05  22187563.969   118605245.791       -2553.256          34.000  
R06  20412462.546   108924729.990        1757.106          29.000  
R07  22750123.617   121783193.077        4086.122          42.000  
R11  21779854.321   116384938.060       -3305.239          35.000  
R12  21984834.716   117439041.542         233.431          31.000  
R20  22739834.140   121600113.173       -2316.126          29.000  
R21  20362083.323   108961621.713          13.872          39.000  
R22  21944437.082   117140896.051        1807.118          21.000  
> 2022  5  5 16  1 36.9998584  0 26
C19  22766464.405   118550883.523        2244.909          41.000  
C20  23144722.442   120520532.495        -538.214          43.000  
C29  22017518.689   114650911.818        -750.306          42.000  
C30  25490702.154   132736598.149       -2370.663          36.000  
C32  26630388.066   138671308.796       -2906.964          29.000  
C35  22783818.790   118641244.752        1372.078          39.000  
E05                                                                                                                                  26855113.692   105385232.845        1838.579          36.000  
E09                                                                                                                                  26265596.406   103071791.650         770.211          34.000  
E25                                                                                                                                  27973284.098   109773023.221       -2469.668          29.000  
E36                                                                                                                                  24428832.171    95863969.474        -910.970          35.000  
G01  22191405.510   116616627.946        1941.677          33.000    22191415.403    87083871.820        1445.114          20.000  
G03  24706055.654   129831282.330        3616.913          39.000    24706079.637    96952065.844        2699.999          38.000  
G08  20485056.391   107649678.427         543.657          39.000    20485059.089    80387759.192         405.759          33.000  
G10  22813529.122   119885868.462       -2808.278          43.000    22813533.320    89525173.728       -2096.693          36.000  
G16  23748558.415   124799474.592       -3805.515          42.000  
G21  21151764.238   111153255.075          78.891          37.000  
G22  24185182.746   127093991.126        2023.120          41.000  
G27  20990765.795   110307198.015       -1691.267          41.000    20990772.690    82372297.158       -1262.926          39.000  
G32  23764148.223   124881374.620        1519.483          46.000    23764155.418    93255672.378        1134.192          27.000  
R05  22188039.740   118607788.577       -2554.572          37.000  
R06  20412132.775   108922973.267        1756.276          27.000  
R07  22749360.046   121779106.073        4086.589          40.000  
R11  21780471.593   116388237.036       -3305.468          36.000  
R12  21984790.047   117438802.374         232.614          34.000  
R20  22740267.640   121602431.079       -2315.752          27.000  
R21  20362075.828   108961580.897          12.405          40.000  
> 2022  5  5 16  1 37.9998582  0 26
C19  22765973.644   118548327.004        2244.606          39.000  
C20  23144766.811   120520759.194        -539.622          46.000  
C29  22017603.230   114651350.058        -750.781          42.000  
C30  25491100.278   132738658.497       -2373.956          38.000  
C32  26630886.021   138673904.205       -2908.378          30.000  
C35  22783496.813   118639558.340        1375.025          38.000  
E05                                                                                                                                  26854585.757   105383159.979        1836.418          35.000  
E09                                                                                                                                  26265341.283   103070787.071         768.644          36.000  
E25                                                                                                                                  27973854.004   109775257.598       -2470.184          32.000  
E36                                                                                                                                  24429002.753    95864644.527        -911.020          32.000  
G01  22190976.207   116614369.881        1943.955          26.000    22190986.400    87082189.591        1449.669          22.000  
G03  24705309.170   129827350.004        3617.527          37.000    24705331.355    96949130.078        2701.195          36.000  
G08  20484891.804   107648818.218         545.607          38.000    20484896.301    80387118.483         406.616          33.000  
G10  22814004.593   119888362.133       -2809.578          43.000    22814008.191    89527035.497       -2097.424          38.000  
G16  23749222.755   124802965.781       -3806.405          39.000  
G21  21151688.691   111152859.013          82.341          37.000  
G22  24184737.854   127091655.128        2021.420          38.000  
G27  20991029.313   110308575.046       -1692.698          43.000    20991035.309    82373325.695       -1264.955          36.000  
G32  23763799.564   124879541.622        1517.371          46.000    23763807.059    93254302.851        1134.218          31.000  
R05  22188452.854   118609997.157       -2556.178          31.000  
R06  20411747.241   108920897.758        1754.707          33.000  
R07  22748538.015   121774705.960        4086.953          40.000  
R11  21781025.610   116391197.927       -3303.977          28.000  
R12  21984685.419   117438243.513         234.158          34.000  
R20  22740643.280   121604440.169       -2317.246          29.000  
R21  20362011.373   108961236.053          15.020          39.000  
> 2022  5  5 16  1 38.9998579  0 26
C19  22765452.905   118545613.639        2245.029          42.000  
C20  23144778.503   120520828.951        -537.594          43.000  
C26  24933729.738   129836269.1041      -1265.288          18.000  
C29  22017658.092   114651631.804        -749.270          42.000  
C30  25491466.025   132740561.576       -2369.298          38.000  
C32  26631355.796   138676344.099       -2907.608          28.000  
C35  22783144.257   118637717.109        1372.140          39.000  
E05                                                                                                                                  26854027.244   105380969.371        1838.333          34.000  
E09                                                                                                                                  26265055.281   103069665.117         770.056          35.000  
E25                                                                                                                                  27974393.630   109777374.473       -2469.059          32.000  
E36                                                                                                                                  24429144.255    95865202.857        -909.985          33.000  
G01  22190516.025   116611952.960        1944.059          28.000    22190525.019    87080385.518        1451.333          26.000  
G03  24704532.408   129823260.850        3616.118          37.000    24704553.693    96946076.549        2699.294          38.000  
G08  20484698.438   107647801.326         544.312          38.000    20484702.635    80386358.632         406.757          32.000  
G10  22814447.687   119890697.680       -2806.693          44.000    22814452.783    89528779.461       -2095.814          36.000  
G16  23749855.617   124806298.877       -3805.607          39.000  
G21  21151584.063   111152306.319          78.751          37.000  
G27  20991261.052   110309794.095       -1691.112          44.000    20991267.048    82374235.808       -1261.679          36.000  
G32  23763419.727   124877548.884        1521.992          43.000    23763428.421    93252816.449        1134.047          31.000  
R05  22188839.286   118612062.771       -2556.132          39.000  
R06  20411326.333   108918663.256        1754.737          27.000  
R07  22747686.904   121770149.191        4087.252          35.000  
R11  21781551.146   116394005.886       -3305.840          36.000  
R12  21984554.110   117437542.368         232.185          37.000  
R20  22740985.643   121606270.664       -2316.247          27.000  
R21  20361923.534   108960766.797          14.218          39.000  
> 2022  5  5 16  1 39.9998579  0 27
C19  22765021.204   118543368.870        2244.592          41.000  
C20  23144881.932   120521367.171        -538.954          43.000  
C26  24933971.671   129837533.022       -1262.740          25.000  
C29  22017801.693   114652380.989        -749.593          42.000  
C30  25491920.810   132742931.753       -2370.219          39.000  
C32  26631914.010   138679251.276       -2906.569          28.000  
C35  22782880.140   118636343.888        1372.229          40.000  
E05                                                                                                                                  26853558.968   105379130.895        1838.854          36.000  
E09                                                                                                                                  26264858.917   103068895.100         770.031          30.000  
E25                                                                                                                                  27975022.295   109779842.864       -2467.707          32.000  
E36                                                                                                                                  24429376.295    95866112.718        -909.976          34.000  
G01  22190146.082   116610009.333        1943.268          29.000    22190154.176    87078936.151        1446.216          23.000  
G03  24703845.883   129819644.497        3616.701          36.000    24703865.670    96943376.859        2699.354          37.000  
G08  20484594.111   107647256.733         543.941          38.000    20484598.607    80385951.051         408.027          31.000  
G10  22814981.317   119893505.026       -2808.412          42.000    22814987.313    89530875.989       -2097.138          39.000  
G16  23750581.714   124810104.326       -3805.975          36.000  
G21  21151568.474   111152226.245          79.757          38.000  
G22  24183881.347   127087134.7761       2023.775          33.000  
G27  20991583.329   110311486.119       -1692.146          43.000    20991588.726    82375498.914       -1263.243          39.000  
G32  23763129.528   124876028.390        1521.206          44.000    23763138.821    93251682.565        1133.476          28.000  
R05  22189315.357   118614608.098       -2556.503          32.000  
R06  20410998.959   108916908.397        1754.837          30.000  
R07  22746925.731   121766074.912        4087.114          38.000  
R11  21782167.519   116397299.253       -3306.806          34.000  
R12  21984510.940   117437312.248         231.368          36.000  
R20  22741420.342   121608594.743       -2315.769          28.000  
R21  20361919.936   108960746.785          12.988          40.000  
> 2022  5  5 16  1 40.9998577  0 24
C19  22764531.043   118540811.652        2244.028          42.000  
C20  23144924.202   120521594.096        -540.686          42.000  
C29  22017886.534   114652818.939        -751.194          42.000  
C30  25492315.637   132744990.073       -2373.497          41.000  
C35  22782555.765   118634659.638        1372.724          39.000  
E05                                                                                                                                  26853030.134   105377056.108        1839.584          38.000  
E09                                                                                                                                  26264601.695   103067889.489         768.914          29.000  
E25                                                                                                                                  27975591.001   109782074.930       -2467.503          32.000  
E36                                                                                                                                  24429549.275    95866786.987        -909.795          36.000  
G01  22189717.378   116607751.948        1942.562          29.000    22189724.873    87077251.794        1450.473          25.000  
G03  24703093.404   129815713.391        3617.578          37.000    24703117.388    96940440.967        2701.585          39.000  
G08  20484431.623   107646398.363         542.811          40.000    20484435.820    80385309.024         405.563          33.000  
G10  22815454.390   119895998.854       -2810.553          41.000    22815460.985    89532738.400       -2099.111          35.000  
G16  23751245.155   124813594.297       -3805.704          38.000  
G21  21151493.226   111151831.760          80.231          39.000  
G22  24183436.755   127084796.074        2023.194          37.000  
G27  20991844.149   110312862.793       -1693.470          41.000    20991850.744    82376526.766       -1263.971          38.000  
G32  23762781.169   124874192.809        1518.129          45.000    23762789.263    93250312.900        1134.241          32.000  
R05  22189732.068   118616835.257       -2557.486          39.000  
R06  20410610.428   108914833.664        1754.461          28.000  
R07  22746104.599   121761679.449        4087.422          41.000  
R11  21782723.035   116400267.523       -3306.246          35.000  
R12  21984408.411   117436764.599         229.511          36.000  
R21  20361854.581   108960397.341          12.838          40.000  
> 2022  5  5 16  1 41.9998577  0 26
C19  22764097.243   118538568.796        2241.269          39.000  
C20  23145028.530   120522135.256        -541.570          41.000  
C26  24934396.776   129839748.7601      -1263.639          24.000  
C29  22018028.636   114653569.699        -751.180          41.000  
C30  25492772.221   132747363.708       -2374.498          37.000  
C35  22782292.247   118633285.671        1375.161          38.000  
E05                                                                                                                                  26852561.858   105375218.521        1835.907          37.000  
E09                                                                                                                                  26264405.331   103067121.822         765.647          29.000  
E25                                                                                                                                  27976220.266   109784543.117       -2468.798          32.000  
E36                                                                                                                                  24429781.914    95867697.609        -910.994          33.000  
G01  22189347.135   116605809.980        1941.763          31.000    22189355.229    87075801.773        1450.563          25.000  
G03  24702407.479   129812097.941        3613.467          37.000    24702429.064    96937740.462        2699.785          39.000  
G08  20484328.494   107645855.092         543.424          38.000    20484332.392    80384903.158         405.572          34.000  
G10  22815988.320   119898809.173       -2809.817          40.000    22815995.515    89534836.558       -2097.878          37.000  
G16  23751970.053   124817401.694       -3809.215          38.000  
G21  21151476.138   111151751.388          81.238          39.000  
G22  24183051.822   127082774.209        2020.064          36.000  
G27  20992168.824   110314556.582       -1694.839          42.000    20992173.621    82377791.825       -1266.137          39.000  
G32  23762492.169   124872675.862        1515.268          44.000    23762500.863    93249179.546        1132.434          29.000  
R05  22190208.438   118619381.496       -2558.629          37.000  
R06  20410281.256   108913080.293        1752.629          30.000  
R07  22745338.030   121757575.739        4083.415          40.000  
R11  21783338.509   116403557.048       -3306.759          34.000  
R12  21984366.440   117436539.542         230.267          30.000  
R20  22742222.887   121612886.9261      -2316.210          22.000  
R21  20361849.785   108960371.723          14.007          37.000  
> 2022  5  5 16  1 42.9998574  0 27
C19  22763575.305   118535858.910        2242.584          37.000  
C20  23145043.220   120522209.418        -543.166          41.000  
C26  24934550.270   129840542.901       -1262.850          29.000  
C29  22018084.397   114653853.601        -752.990          43.000  
C30  25493139.167   132749270.601       -2373.734          39.000  
C32  26633442.352   138687190.9841      -2908.417          26.000  
C35  22781939.991   118631443.088        1372.422          38.000  
E05                                                                                                                                  26852003.944   105373028.932        1840.016          37.000  
E09                                                                                                                                  26264120.528   103066003.602         764.877          33.000  
E25                                                                                                                                  27976759.892   109786660.236       -2469.748          30.000  
E36                                                                                                                                  24429924.016    95868256.011        -912.749          35.000  
G01  22188888.152   116603394.729        1941.758          32.000  
G03                                                                  24701651.103    96934687.407        2702.017          33.000  
G08  20484134.529   107644839.546         541.594          42.000    20484139.325    80384145.006         404.572          34.000  
G10  22816433.212   119901148.076       -2813.681          40.000    22816440.107    89536581.847       -2099.812          37.000  
G16  23752604.414   124820736.348       -3804.745          39.000  
G21  21151368.812   111151198.147          79.968          39.000  
G22  24182579.349   127080282.305        2018.892          35.000  
G27  20992399.964   110315779.325       -1695.138          41.000    20992405.960    82378704.529       -1265.022          35.000  
G32  23762113.531   124870688.177        1516.094          45.000    23762122.825    93247694.852        1131.630          32.000  
R05  22190606.263   118621508.216       -2560.673          37.000  
R06  20409865.744   108910849.461        1750.001          31.000  
R07  22744480.924   121752988.086        4087.679          40.000  
R11  21783866.443   116406378.189       -3306.427          32.000  
R12  21984231.233   117435817.307         230.196          38.000  
R20  22742566.749   121614725.438       -2318.822          29.000  
R21  20361758.348   108959882.916          10.127          42.000  
> 2022  5  5 16  1 43.9998574  0 26
C19  22763145.402   118533615.843        2243.719          40.000  
C20  23145147.548   120522751.480        -540.896          41.000  
C26  24934796.400   129841806.229       -1266.142          24.000  
C29  22018227.998   114654605.603        -750.054          43.000  
C30  25493592.453   132751642.162       -2370.403          41.000  
C32  26634001.764   138690100.171       -2909.605          24.000  
C35  22781675.874   118630072.603        1373.001          39.000  
E05                                                                                                                                  26851535.069   105371189.201        1838.924          36.000  
E09                                                                                                                                  26263925.663   103065237.878         767.374          32.000  
E25                                                                                                                                  27977389.157   109789128.431       -2467.550          32.000  
E36                                                                                                                                  24430156.654    95869168.493        -912.432          34.000  
G01  22188519.408   116601454.192        1940.678          29.000  
G03  24700941.494   129804396.5561       3616.063          30.000    24700962.480    96931985.883        2701.176          36.000  
G08  20484028.702   107644298.124         543.071          42.000    20484036.497    80383741.500         404.753          33.000  
G10  22816968.641   119903959.769       -2809.801          40.000    22816975.237    89538681.399       -2098.703          36.000  
G16  23753329.312   124824541.556       -3806.995          38.000  
G21  21151355.321   111151121.116          78.259          37.000  
G22  24182195.614   127078262.424        2021.089          36.000  
G27  20992721.641   110317473.197       -1692.555          41.000    20992727.637    82379969.651       -1264.912          36.000  
G32  23761823.632   124869169.738        1518.647          45.000    23761834.125    93246562.658        1133.500          33.000  
R05  22191082.633   118624054.700       -2560.245          35.000  
R06  20409541.369   108909099.258        1750.524          28.000  
R07  22743720.350   121748916.587        4087.349          40.000  
R11  21784487.613   116409697.701       -3308.449          33.000  
R12  21984186.265   117435577.879         226.788          36.000  
R21  20361761.646   108959900.068          12.296          41.000  
> 2022  5  5 16  1 44.9998572  0 26
C19  22762657.040   118531060.798        2241.042          42.000  
C20  23145191.617   120522980.826        -543.339          42.000  
C29  22018312.839   114655044.124        -751.900          43.000  
C30  25493987.280   132753700.810       -2371.948          33.000  
C32  26634500.619   138692698.352       -2909.641          20.000  
C35  22781352.698   118628387.569        1372.326          38.000  
E05                                                                                                                                  26851006.535   105369115.310        1837.326          35.000  
E09                                                                                                                                  26263669.940   103064234.496         768.791          30.000  
E25                                                                                                                                  27977958.163   109791360.645       -2468.249          32.000  
E36                                                                                                                                  24430329.335    95869844.614        -910.413          35.000  
G01  22188089.805   116599198.698        1940.237          29.000  
G03  24700194.411   129800465.552        3615.464          37.000    24700214.497    96929050.095        2699.672          38.000  
G08  20483868.313   107643440.591         540.227          37.000    20483873.709    80383101.818         403.782          33.000  
G10  22817445.911   119906454.654       -2810.845          42.000    22817451.307    89540544.771       -2099.066          37.000  
G16  23753993.053   124828033.690       -3807.742          37.000  
G21  21151280.973   111150727.628          77.300          38.000  
G22  24181750.423   127075926.085        2021.175          37.000  
G27  20992981.861   110318852.203       -1696.038          43.000    20992989.656    82380999.097       -1265.431          39.000  
G32  23761474.973   124867336.715        1516.969          43.000    23761485.166    93245193.479        1133.054          29.000  
R05  22191500.844   118626290.251       -2560.146          36.000  
R06  20409151.339   108907028.760        1749.991          30.000  
R07  22742899.218   121744521.045        4084.385          39.000  
R11  21785053.921   116412723.350       -3309.669          35.000  
R12  21984080.738   117435013.342         225.756          26.000  
R20  22743376.788   121619057.4521      -2316.801          27.000  
R21  20361697.790   108959558.414          12.238          39.000  
> 2022  5  5 16  1 45.9998572  0 25
C19  22762227.438   118528818.572        2242.082          42.000  
C20  23145296.545   120523523.640        -543.597          42.000  
C29  22018458.239   114655795.962        -751.848          43.000  
C30  25494441.465   132756072.825       -2372.620          39.000  
C35  22781089.180   118627015.808        1373.306          39.000  
E05                                                                                                                                  26850538.259   105367277.815        1837.232          35.000  
E09                                                                                                                                  26263473.875   103063465.795         768.713          32.000  
E25                                                                                                                                  27978587.127   109793828.781       -2467.750          32.000  
E36                                                                                                                                  24430561.374    95870755.246        -910.959          34.000  
G01  22187721.060   116597257.805        1942.287          30.000  
G03  24699505.488   129796849.941        3615.351          40.000    24699526.773    96926349.663        2701.257          36.000  
G08  20483765.184   107642899.425         542.395          40.000    20483770.880    80382697.518         404.116          34.000  
G10  22817980.141   119909265.988       -2812.086          42.000    22817985.837    89542643.972       -2100.517          37.000  
G16  23754716.152   124831839.667       -3806.493          40.000  
G21  21151268.382   111150650.027          79.115          37.000  
G22  24181364.889   127073904.578        2021.327          37.000  
G27  20993305.637   110320547.395       -1695.147          39.000    20993313.432    82382264.372       -1266.188          38.000  
G32  23761186.573   124865819.325        1515.652          45.000    23761196.166    93244060.093        1133.414          31.000  
R05  22191978.413   118628843.812       -2561.215          37.000  
R06  20408820.068   108905279.010        1749.459          26.000  
R07  22742134.448   121740426.519        4086.320          42.000  
R11  21785678.688   116416062.347       -3308.972          34.000  
R12  21984033.670   117434762.258         225.469          32.000  
R20  22743809.388   121621370.019       -2316.779          29.000  
R21  20361695.991   108959549.223          11.930          40.000  
> 2022  5  5 16  1 46.9998569  0 28
C19  22761708.197   118526109.198        2241.455          42.000  
C20  23145310.935   120523599.637        -545.612          41.000  
C22  26848401.339   139806670.9441       3220.953          24.000  
C26  24935375.599   129844831.8851      -1269.286          24.000  
C29  22018514.600   114656080.326        -753.577          42.000  
C30  25494806.313   132757978.168       -2374.619          30.000  
C32  26635524.410   138698049.8831      -2911.192          25.000  
C35  22780731.828   118625173.745        1371.781          38.000  
E05                                                                                                                                  26849980.645   105365088.324        1836.184          37.000  
E09                                                                                                                                  26263189.372   103062346.159         765.751          35.000  
E25                                                                                                                                  27979126.454   109795944.492       -2468.820          33.000  
E36                                                                                                                                  24430703.776    95871313.229        -911.591          36.000  
G01  22187261.179   116594843.050        1941.324          28.000  
G03  24698727.527   129792761.337        3615.866          38.000    24698748.812    96923296.390        2699.978          38.000  
G08  20483572.718   107641884.988         540.045          39.000    20483577.814    80381940.258         403.290          33.000  
G10  22818425.633   119911605.856       -2812.978          39.000    22818431.928    89544390.948       -2100.981          37.000  
G16  23755351.712   124835174.728       -3807.658          40.000  
G21  21151166.752   111150098.110          77.760          39.000  
G22  24180889.119   127071412.282        2020.145          37.000  
G27  20993538.276   110321770.306       -1696.435          40.000    20993546.670    82383177.892       -1266.733          39.000  
G32  23760807.635   124863832.266        1515.082          44.000    23760818.128    93242574.744        1131.495          35.000  
R05  22192366.944   118630919.882       -2562.658          35.000  
R06  20408400.658   108903050.405        1747.877          28.000  
R07  22741274.943   121735826.183        4083.953          40.000  
R11  21786210.820   116418905.568       -3308.933          39.000  
R12  21983899.663   117434046.990         225.472          34.000  
R20  22744151.751   121623200.875       -2318.486          29.000  
R21  20361599.458   108959032.019          11.390          40.000  
> 2022  5  5 16  1 47.9998569  0 27
C19  22761276.796   118523866.943        2241.427          42.000  
C20  23145412.564   120524143.623        -543.683          40.000  
C22  26847781.068   139803448.556        3222.929          23.000  
C26  24935619.930   129846101.662       -1270.394          23.000  
C29  22018657.900   114656832.514        -751.688          43.000  
C30  25495261.997   132760352.279       -2373.772          35.000  
C35  22780470.708   118623802.770        1371.806          39.000  
E05                                                                                                                                  26849512.070   105363251.080        1838.334          35.000  
E09                                                                                                                                  26262994.207   103061579.551         766.575          31.000  
E25                                                                                                                                  27979755.718   109798412.491       -2468.238          32.000  
E36                                                                                                                                  24430935.815    95872224.663        -911.583          35.000  
G01  22186890.036   116592902.889        1939.472          27.000  
G03  24698037.704   129789145.953        3614.937          39.000    24698060.788    96920596.914        2698.923          39.000  
G08  20483470.488   107641344.945         540.478          41.000    20483474.686    80381537.073         402.871          33.000  
G10  22818961.961   119914417.789       -2811.372          40.000    22818966.458    89546491.455       -2099.875          35.000  
G16  23756077.210   124838981.417       -3807.693          41.000  
G21  21151148.465   111150020.631          78.593          39.000  
G22  24180502.686   127069391.125        2021.634          36.000  
G27  20993863.251   110323465.589       -1695.858          39.000    20993869.247    82384444.275       -1267.173          39.000  
G32  23760520.434   124862315.427        1516.042          44.000    23760529.728    93241443.384        1131.314          30.000  
R05  22192845.413   118633478.016       -2563.435          34.000  
R06  20408072.086   108901302.696        1747.391          28.000  
R07  22740516.768   121731766.988        4085.759          40.000  
R11  21786833.789   116422234.349       -3310.516          38.000  
R12  21983858.292   117433825.351         223.898          33.000  
R20  22744582.853   121625506.749       -2317.736          29.000  
R21  20361596.760   108959017.473          11.316          40.000  
> 2022  5  5 16  1 48.9998566  0 25
C19  22760755.457   118521157.962        2240.106          42.000  
C20  23145428.453   120524218.452        -543.605          41.000  
C29  22018711.263   114657115.409        -751.904          43.000  
C30  25495628.044   132762256.639       -2372.326          33.000  
C35  22780119.052   118621963.027        1370.595          40.000  
E05                                                                                                                                  26848953.256   105361059.874        1838.226          31.000  
E09                                                                                                                                  26262708.505   103060458.975         768.508          30.000  
E25                                                                                                                                  27980294.445   109800527.465       -2468.100          31.000  
E36                                                                                                                                  24431075.518    95872782.565        -910.518          33.000  
G01  22186431.053   116590491.510        1937.851          27.000  
G03  24697261.242   129785060.167        3612.887          39.000    24697283.426    96917545.612        2698.168          38.000  
G08  20483276.223   107640332.150         539.531          38.000    20483282.219    80380780.728         403.572          34.000  
G10  22819405.354   119916755.614       -2811.764          42.000    22819411.050    89548237.711       -2098.951          35.000  
G16  23756710.971   124842316.946       -3808.219          41.000  
G21  21151044.437   111149470.111          76.922          39.000  
G22  24180029.614   127066897.056        2021.512          37.000  
G27  20994097.089   110324688.255       -1695.721          43.000    20994101.886    82385357.552       -1265.774          41.000  
G32  23760141.496   124860325.866        1517.045          43.000    23760151.689    93239958.665        1131.949          32.000  
R05  22193235.143   118635561.290       -2562.351          35.000  
R06  20407649.978   108899075.563        1747.124          28.000  
R07  22739663.558   121727200.389        4084.980          40.000  
R11  21787360.824   116425051.047       -3312.856          37.000  
R12  21983726.683   117433122.458         222.586          32.000  
R20  22744924.616   121627333.742       -2316.059          29.000  
R21  20361506.223   108958532.992          11.672          39.000  
> 2022  5  5 16  1 49.9998566  0 27
C19  22760326.154   118518917.328        2240.119          42.000  
C20  23145532.781   120524763.335        -546.753          40.000  
C22  26846449.390   139796540.5151       3217.531          24.000  
C26  24936021.052   129848175.5251      -1271.306          24.000  
C29  22018855.464   114657867.575        -752.741          42.000  
C30  25496083.129   132764628.209       -2372.269          40.000  
C35  22779855.534   118620592.370        1372.034          40.000  
E05                                                                                                                                  26848484.981   105359221.599        1838.186          32.000  
E09                                                                                                                                  26262513.340   103059691.897         765.359          30.000  
E25                                                                                                                                  27980923.410   109802996.442       -2468.810          31.000  
E36                                                                                                                                  24431308.157    95873693.182        -911.224          35.000  
G01  22186061.409   116588553.905        1937.249          28.000  
G03  24696573.818   129781445.984        3616.123          40.000    24696595.703    96914847.149        2699.532          39.000  
G08  20483173.094   107639792.666         540.381          40.000    20483179.690    80380377.697         402.944          34.000  
G10  22819941.383   119919568.152       -2813.855          42.000    22819945.580    89550337.044       -2100.595          36.000  
G16  23757435.570   124846125.029       -3807.818          41.000  
G21  21151028.548   111149392.719          78.202          38.000  
G22  24179644.081   127064875.993        2019.001          36.000  
G27  20994417.567   110326384.120       -1697.140          40.000    20994423.563    82386623.231       -1267.413          37.000  
G32  23759853.696   124858809.496        1513.376          45.000    23759863.589    93238827.438        1130.465          29.000  
R05  22193711.813   118638109.371       -2564.129          31.000  
R06  20407317.508   108897328.587        1746.616          28.000  
R07  22738899.388   121723109.389        4086.105          40.000  
R11  21787984.692   116428384.933       -3310.370          38.000  
R12  21983684.412   117432896.747         221.178          35.000  
R20  22745361.714   121629671.667       -2316.642          30.000  
R21  20361505.623   108958529.905          10.630          41.000  
> 2022  5  5 16  1 50.9998564  0 27
C19  22759836.893   118516365.209        2241.093          41.000  
C20  23145577.750   120524997.374        -544.676          40.000  
C29  22018940.305   114658308.314        -752.327          41.000  
C30  25496478.855   132766688.586       -2372.249          36.000  
C32  26637612.165   138708910.5641      -2908.837          27.000  
C35  22779532.058   118618907.962        1369.885          40.000  
E02                                                                                                                                  24753194.720    97136829.1491      -1827.634          38.000  
E05                                                                                                                                  26847956.746   105357148.970        1838.041          35.000  
E09                                                                                                                                  26262258.217   103058691.504         765.550          33.000  
E25                                                                                                                                  27981492.416   109805229.955       -2468.415          30.000  
E36                                                                                                                                  24431480.838    95874369.119        -911.029          35.000  
G01  22185632.706   116586300.280        1938.327          32.000  
G03  24695824.936   129777515.763        3614.610          39.000    24695847.421    96911912.057        2699.676          40.000  
G08  20483011.506   107638937.722         537.853          40.000    20483017.202    80379739.516         401.951          32.000  
G10  22820416.854   119922065.932       -2812.285          42.000    22820421.351    89552202.546       -2101.047          36.000  
G16  23758100.509   124849617.492       -3806.425          42.000  
G21  21150953.000   111148999.319          75.212          39.000  
G22  24179199.489   127062541.510        2023.071          38.000  
G27  20994680.185   110327766.409       -1696.262          40.000    20994686.781    82387655.578       -1267.128          39.000  
G32  23759504.737   124856980.442        1517.396          43.000    23759514.630    93237461.917        1131.242          30.000  
R05  22194131.822   118640354.377       -2565.086          32.000  
R06  20406931.975   108895262.797        1745.725          26.000  
R07  22738080.654   121718726.530        4085.559          39.000  
R11  21788546.803   116431388.841       -3313.241          41.000  
R12  21983582.483   117432351.875         220.931          37.000  
R20  22745731.957   121631651.170       -2317.042          27.000  
R21  20361442.667   108958192.692          10.212          39.000  
> 2022  5  5 16  1 51.9998564  0 29
C19  22759404.892   118514124.221        2240.662          41.000  
C20  23145682.677   120525542.257        -545.489          42.000  
C22  26845151.588   139789788.9071       3220.508          21.000  
C26  24936448.856   129850408.6571      -1272.902          22.000  
C29  22019084.805   114659060.137        -752.005          42.000  
C30  25496934.540   132769060.582       -2371.822          37.000  
C32  26638169.479   138711819.156       -2908.929          27.000  
C35  22779267.641   118617537.049        1372.052          39.000  
E02                                                                                                                                  24753660.298    97138656.705       -1826.995          38.000  
E05                                                                                                                                  26847488.470   105355310.398        1838.643          35.000  
E09                                                                                                                                  26262063.052   103057925.650         766.711          30.000  
E25                                                                                                                                  27982121.680   109807697.763       -2467.732          31.000  
E36                                                                                                                                  24431713.477    95875279.878        -910.612          35.000  
G01  22185264.561   116584361.847        1938.303          30.000  
G03  24695137.512   129773900.984        3613.998          40.000    24695159.697    96909212.821        2698.365          40.000  
G08  20482908.677   107638399.042         539.728          40.000    20482914.673    80379337.160         403.085          33.000  
G10  22820952.283   119924878.108       -2811.776          42.000    22820956.780    89554303.491       -2100.531          37.000  
G16  23758824.208   124853424.097       -3807.396          42.000  
G21  21150938.910   111148922.512          78.071          38.000  
G22  24178814.555   127060518.811        2021.456          39.000  
G27  20995000.963   110329461.800       -1695.431          41.000    20995009.058    82388922.095       -1265.962          38.000  
G32  23759215.737   124855463.704        1516.043          43.000    23759225.930    93236330.814        1131.334          28.000  
R05  22194612.989   118642926.626       -2565.203          35.000  
R06  20406607.600   108893517.123        1745.659          29.000  
R07  22737315.284   121714629.218        4085.943          39.000  
R11  21789163.176   116434681.956       -3313.016          37.000  
R12  21983539.013   117432119.839         219.752          35.000  
R20  22746161.860   121633949.638       -2316.004          27.000  
R21  20361442.966   108958194.735          11.650          39.000  
