     3.03           OBSERVATION DATA    M: Mixed            RINEX VERSION / TYPE
Geo++ RINEX Logger  Geo++               20220505 154422 UTC PGM / RUN BY / DATE
************************************************************COMMENT
This file was generated by the Geo++ RINEX Logger App       COMMENT
for Android devices (Version 2.1.6). If you encounter       COMMENT
any issues, please send an email to android@geopp.de        COMMENT
Filtering Mode: MORE                                        COMMENT
************************************************************COMMENT
Geo++                                                       MARKER NAME
GEODETIC                                                    MARKER TYPE
Geo++               Geo++                                   OBSERVER / AGENCY
unknown             HUAWEI              ELE-L29             REC # / TYPE / VERS
unknown             ELE-L29                                 ANT # / TYPE
  5213914.0591  -264631.9929  3651921.4188                  APPROX POSITION XYZ
        0.0000        0.0000        0.0000                  ANTENNA: DELTA H/E/N
G    8 C1C L1C D1C S1C C5Q L5Q D5Q S5Q                      SYS / # / OBS TYPES
R    4 C1C L1C D1C S1C                                      SYS / # / OBS TYPES
E   12 C1B L1B D1B S1B C1C L1C D1C S1C C5Q L5Q D5Q S5Q      SYS / # / OBS TYPES
C    4 C2I L2I D2I S2I                                      SYS / # / OBS TYPES
J    8 C1C L1C D1C S1C C5Q L5Q D5Q S5Q                      SYS / # / OBS TYPES
  2022     5     5    15    44   40.9999990     GPS         TIME OF FIRST OBS
 24 R01  1 R02 -4 R03  5 R04  6 R05  1 R06 -4 R07  5 R08  6 GLONASS SLOT / FRQ #
    R09 -2 R10 -5 R11  0 R12 -1 R13 -2 R14 -7 R15  0 R16 -1 GLONASS SLOT / FRQ #
    R17  4 R18 -3 R19  3 R20  2 R21  4 R22 -3 R23  3 R24  2 GLONASS SLOT / FRQ #
G L1C                                                       SYS / PHASE SHIFT
G L5Q -0.25000                                              SYS / PHASE SHIFT
R L1C                                                       SYS / PHASE SHIFT
E L1B                                                       SYS / PHASE SHIFT
E L1C +0.50000                                              SYS / PHASE SHIFT
E L5Q -0.25000                                              SYS / PHASE SHIFT
C L2I                                                       SYS / PHASE SHIFT
J L1C                                                       SYS / PHASE SHIFT
J L5Q -0.25000                                              SYS / PHASE SHIFT
 C1C    0.000 C1P    0.000 C2C    0.000 C2P    0.000        GLONASS COD/PHS/BIS
                                                            END OF HEADER
> 2022  5  5 15 44 40.9999990  2  0
> 2022  5  5 15 44 40.9999990  0 15
C19  23276234.798   121205462.8441       2537.319          40.000  
C20  23133812.695   120463834.0421         -0.254          43.000  
C26  24768981.191   128978585.2011       -846.801          32.000  
C29  21928921.024   114189646.9941       -589.747          39.000  
C30  25076252.572   130578628.2781      -2303.005          42.000  
C32  26131115.805   136071577.3721      -2623.729          33.000  
C35  23099906.468   120287275.1771       1431.522          39.000  
G01  22630441.072   118923771.0761       2160.697          40.000  
G08  20664600.595   108593209.4271        869.254          37.000  
G10  22346181.161   117429975.4591      -2441.621          41.000  
G16  23065996.343   121212629.4091      -3672.150          40.000  
G21  21227603.036   111551807.0011        274.563          38.000  
G22  24624108.285   129400562.9871       2069.964          37.000  
G23  24738655.685   130002513.3971      -3633.874          33.000  
G27  20739557.703   108987111.7001      -1339.753          41.000  
> 2022  5  5 15 44 41.9999987  0 16
C19  23275659.496   121202458.218        2536.763          39.000  
C20  23133723.357   120463366.648          -0.405          39.000  
C26  24769054.041   128978962.854        -845.872          34.000  
C29  21928945.007   114189768.464        -590.379          39.000  
C30  25076602.429   130580463.572       -2303.367          37.000  
C32  26131531.617   136073733.042       -2624.320          36.000  
C35  23099541.620   120285374.742        1432.064          33.000  
G01  22629937.720   118921138.160        2159.671          40.000  
G08  20664346.670   108591867.768         868.882          37.000  
G10  22346555.601   117431944.891       -2441.525          43.000  
G16  23066604.022   121215829.485       -3672.776          39.000  
G21  21227462.434   111551060.338         273.906          37.000  
G22  24623625.619   129398020.557        2069.077          35.000  
G23  24739257.668   130005674.733       -3634.099          33.000  
G27  20739721.989   108987979.582       -1339.669          41.000  
G32  24127019.412   126788342.7651       1791.600          33.000  
> 2022  5  5 15 44 42.9999985  0 16
C19  23275111.476   121199607.291        2540.611          38.000  
C20  23133663.098   120463052.628           3.778          41.000  
C26  24769155.970   128979495.838        -844.159          30.000  
C29  21928998.071   114190044.050        -586.823          34.000  
C30  25076983.466   130582453.606       -2301.032          34.000  
C32  26131975.610   136076044.179       -2621.882          39.000  
C35  23099206.452   120283629.332        1433.228          24.000  
G01  22629469.744   118918662.118        2161.897          39.000    22629475.440    88802922.7411       1615.140          33.000  
G08  20664122.126   108590683.017         869.853          35.000    20664126.023    81090469.4631        649.469          28.000  
G10  22346959.122   117434069.437       -2437.515          42.000    22346963.319    87694284.4071      -1821.728          36.000  
G16  23067241.681   121219184.998       -3668.823          41.000  
G21  21227349.712   111550470.952         274.917          26.000  
G22  24623171.733   129395635.062        2072.112          32.000  
G23  24739888.432   130008992.797       -3631.529          34.000  
G27  20739915.056   108989001.877       -1335.652          38.000    20739921.951    81387908.7831       -998.564          36.000  
G32  24126618.590   126786235.426        1793.816          38.000    24126626.384    94678064.9581       1339.318          31.000  
> 2022  5  5 15 44 43.9999985  0 16
C19  23274625.512   121197066.990        2539.546          41.000  
C20  23133662.199   120463049.409           1.898          41.000  
C26  24769319.357   128980339.489        -842.457          27.000  
C29  21929109.593   114190630.180        -585.554          38.000  
C30  25077424.161   130584753.081       -2298.651          31.000  
C32  26132476.563   136078664.366       -2620.914          42.000  
C35  23098932.742   120282195.292        1434.458          28.000  
G01  22629059.628   118916499.906        2162.833          31.000    22629063.525    88801307.808        1614.263          27.000  
G08  20663956.940   108589811.962         871.895          36.000    20663960.538    81089818.575         652.285          33.000  
G10  22347423.201   117436506.863       -2438.471          40.000    22347427.398    87696105.262       -1820.075          39.000  
G16  23067941.097   121222854.105       -3668.546          40.000  
G21  21227296.948   111550194.743         276.933          29.000  
G22  24622777.806   129393561.511        2074.384          33.000  
G23  24740579.153   130012623.070       -3629.336          36.000  
G27  20740170.179   108990337.686       -1336.406          38.000    20740176.175    81388906.770        -997.638          36.000  
G32  24126278.025   126784440.597        1794.770          39.000    24126284.621    94676724.527        1341.400          37.000  
> 2022  5  5 15 44 44.9999982  0 16
C19  23274047.512   121194059.728        2538.292          39.000  
C20  23133571.062   120462580.618          -1.386          40.000  
C26  24769391.007   128980713.449        -843.296          28.000  
C29  21929131.778   114190747.518        -585.995          41.000  
C30  25077776.117   130586582.880       -2298.429          26.000  
C32  26132889.377   136080817.948       -2623.472          45.000  
C35  23098567.894   120280292.216        1434.842          32.000  
G01  22628558.975   118913864.400        2162.692          34.000    22628562.872    88799340.063        1614.645          29.000  
G08  20663703.616   108588467.481         870.479          39.000    20663704.215    81088813.620         650.848          33.000  
G10  22347797.642   117438474.052       -2441.000          42.000    22347801.239    87697573.090       -1821.540          39.000  
G16  23068549.376   121226050.980       -3671.169          35.000  
G21  21227153.947   111549444.692         276.873          35.000  
G22  24622293.941   129391014.346        2074.276          31.000  
G23  24741180.537   130015779.771       -3629.739          41.000  
G27  20740336.564   108991202.699       -1338.785          40.000    20740340.161    81389551.864        -998.509          36.000  
G32  24125842.727   126782174.104        1793.020          38.000    24125852.920    94675030.621        1340.117          39.000  
> 2022  5  5 15 44 45.9999982  0 15
C19  23273560.349   121191521.222        2538.674          43.000  
C20  23133572.561   120462581.232          -0.034          40.000  
C29  21929243.601   114191335.118        -588.314          37.000  
C30  25078218.011   130588882.219       -2300.000          37.000  
C32  26133394.228   136083441.953       -2623.881          43.000  
C35  23098292.385   120278856.772        1434.608          22.000  
G01  22628148.559   118911701.850        2161.782          34.000    22628151.257    88797726.254        1613.284          25.000  
G08  20663539.629   108587598.119         869.287          36.000    20663539.329    81088163.658         650.128          28.000  
G10  22348261.720   117440916.002       -2441.884          45.000    22348265.318    87699395.633       -1822.832          33.000  
G16  23069248.192   121229721.165       -3669.833          39.000  
G21  21227100.284   111549167.958         275.701          32.000  
G22  24621899.714   129388940.257        2073.824          31.000  
G23  24741871.259   130019410.652       -3632.460          41.000  
G27  20740591.387   108992542.033       -1338.872          42.000    20740595.584    81390551.408       -1000.016          37.000  
G32  24125500.663   126780381.146        1793.948          42.000    24125512.056    94673691.126        1338.324          36.000  
> 2022  5  5 15 44 46.9999982  0 16
C19  23273072.287   121188981.975        2538.231          44.000  
C20  23133571.362   120462580.772           0.237          41.000  
C26  24769719.280   128982400.9221       -845.539          28.000  
C29  21929356.323   114191923.076        -587.728          33.000  
C30  25078659.006   130591181.653       -2299.313          38.000  
C32  26133899.978   136086065.843       -2622.871          39.000  
C35  23098018.075   120277422.664        1433.095          25.000  
G01  22627736.344   118909541.029        2160.103          30.000    22627740.241    88796114.391        1612.809          30.000  
G08  20663373.844   108586728.916         869.074          33.000    20663373.844    81087513.834         649.588          28.000  
G10  22348726.099   117443356.998       -2439.945          42.000    22348730.296    87701218.712       -1824.286          32.000  
G16  23069946.109   121233390.620       -3670.356          44.000  
G21  21227048.420   111548892.936         274.597          28.000  
G22  24621505.786   129386865.805        2074.584          37.000  
G23  24742560.182   130023043.944       -3632.398          39.000  
G27  20740845.911   108993880.468       -1336.868          39.000    20740851.307    81391551.249        -999.530          36.000  
G32  24125159.500   126778586.538        1793.255          44.000    24125171.192    94672351.981        1339.623          33.000  
> 2022  5  5 15 44 47.9999980  0 16
C19  23272524.866   121186131.810        2537.639          39.000  
C20  23133510.504   120462268.980          -1.022          34.000  
C26  24769821.210   128982934.761        -847.529          23.000  
C29  21929409.686   114192198.816        -588.273          33.000  
C30  25079040.641   130593168.940       -2300.179          30.000  
C32  26134343.371   136088376.742       -2623.101          31.000  
C35  23097683.207   120275677.283        1433.138          25.000  
G01  22627265.370   118907065.437        2160.685          31.000    22627269.267    88794265.574        1613.661          24.000  
G08  20663148.100   108585543.894         870.115          35.000    20663148.700    81086628.604         648.476          31.000  
G10  22349131.718   117445483.004       -2442.359          40.000    22349135.316    87702807.270       -1823.596          33.000  
G16  23070587.365   121236747.254       -3672.825          43.000  
G21  21226937.197   111548303.018         274.694          32.000  
G22  24621050.401   129384476.785        2072.418          38.000  
G23  24743190.646   130026360.981       -3631.950          30.000  
G27  20741039.877   108994902.869       -1338.624          37.000    20741045.873    81392315.216       -1000.177          35.000  
G32  24124758.977   126776479.185        1792.247          40.000    24124770.369    94670777.699        1339.059          34.000  
> 2022  5  5 15 44 48.9999980  0 16
C19  23272038.603   121183594.514        2535.991          34.000  
C20  23133510.804   120462270.430          -2.292          41.000  
C26  24769986.995   128983782.515        -848.389          26.000  
C29  21929522.707   114192787.082        -588.644          38.000  
C30  25079482.835   130595470.035       -2301.775          34.000  
C32  26134845.523   136091000.436       -2623.978          30.000  
C35  23097408.597   120274244.822        1431.902          24.000  
G01  22626852.556   118904905.497        2159.616          25.000    22626858.552    88792650.689        1615.754          14.000  
G08                                                                  20662984.414    81085980.498         646.837          23.000  
G10  22349597.296   117447925.764       -2443.766          43.000    22349600.294    87704630.782       -1823.940          32.000  
G16  23071285.581   121240420.015       -3672.795          33.000  
G21  21226885.933   111548028.800         274.065          31.000  
G22  24620654.975   129382405.684        2070.032          38.000  
G23  24743878.369   130029992.299       -3632.287          29.000  
G27  20741293.801   108996242.363       -1340.561          38.000    20741300.397    81393315.760       -1000.413          33.000  
G32  24124418.113   126774686.461        1792.470          37.000    24124428.905    94669438.875        1338.558          27.000  
> 2022  5  5 15 44 49.9999977  0 14
C19  23271461.802   121180589.356        2537.031          29.000  
C20  23133421.765   120461804.383          -2.498          35.000  
C29  21929545.492   114192907.700        -589.082          32.000  
C30  25079835.991   130597303.151       -2301.533          28.000  
C32  26135258.037   136093155.611       -2623.682          26.000  
G01  22626351.603   118902274.004        2158.009          22.000    22626356.999    88790677.772        1621.892          14.000  
G08  20662727.192   108583332.9951        868.241          24.000    20662730.190    81084981.978         645.255          26.000  
G10  22349972.336   117449896.699       -2443.480          34.000    22349975.634    87706101.957       -1824.364          32.000  
G16  23071893.560   121243619.773       -3671.911          29.000  
G21  21226742.632   111547282.574         273.499          25.000  
G22  24620173.808   129379861.178        2073.350          28.000  
G23  24744478.554   130033151.158       -3631.431          22.000  
G27  20741457.788   108997109.578       -1340.022          33.000    20741464.983    81393963.548       -1000.932          30.000  
G32  24123987.011   126772421.488        1792.149          31.000    24123998.104    94667748.835        1337.616          26.000  
> 2022  5  5 15 44 50.9999977  0 19
C19  23270975.239   121178052.592        2536.211          39.000  
C20  23133422.665   120461807.272          -3.242          42.000  
C26  24770228.927   128985014.0351       -853.392          18.000  
C29  21929657.914   114193496.709        -589.162          37.000  
C30  25080277.585   130599604.558       -2301.399          36.000  
C32  26135761.988   136095779.711       -2625.304          30.000  
C35  23096763.743   120270910.6701       1433.550          16.000  
E05                                                                                                                                  27365607.484   107388522.3211       1814.547          29.000  
E25                                                                                                                                  27375912.850   107428963.0261      -2507.184          30.000  
G01  22625937.889   118900115.395        2158.580          22.000    22625944.784    88789057.612        1617.017          14.000  
G08  20662560.807   108582464.605         868.094          26.000    20662562.606    81084335.235         646.943          20.000  
G10  22350437.014   117452340.005       -2443.195          37.000    22350440.912    87707926.056       -1824.594          32.000  
G16  23072591.777   121247291.523       -3671.578          37.000  
G21  21226689.569   111547008.953         274.045          25.000  
G22  24619778.982   129377787.499        2073.572          31.000  
G23  24745169.576   130036783.740       -3632.982          22.000  
G27  20741711.412   108998449.998       -1340.852          39.000    20741720.106    81394965.061       -1002.828          30.000  
G32  24123645.548   126770629.316        1791.923          34.000    24123657.240    94666411.025        1337.603          33.000  
R07  23562096.800   126129749.4681       4096.860          33.000  
> 2022  5  5 15 44 51.9999974  0 17
C19  23270398.438   121175048.259        2535.533          34.000  
C20  23133333.626   120461342.860          -4.472          40.000  
C29  21929680.098   114193617.924        -589.915          35.000  
C30  25080630.741   130601437.970       -2302.163          30.000  
C32  26136176.302   136097937.321       -2626.736          33.000  
E05                                                                                                                                  27365054.667   107386355.574        1812.592          30.000  
E25                                                                                                                                  27376461.470   107431117.245       -2507.125          31.000  
G01  22625437.236   118897484.216        2159.151          22.000  
G08  20662305.084   108581125.027         865.695          30.000    20662307.782    81083335.700         647.588          19.000  
G10  22350811.455   117454311.039       -2444.367          38.000    22350816.552    87709398.782       -1826.849          26.000  
G16  23073199.756   121250491.089       -3672.640          36.000  
G21  21226549.865   111546262.620         272.965          20.000  
G22  24619295.117   129375241.543        2072.895          32.000  
G23  24745771.559   130039944.382       -3633.900          30.000  
G27  20741876.598   108999318.818       -1341.946          39.000    20741884.692    81395614.445       -1001.476          25.000  
G32  24123216.245   126768365.338        1790.552          41.000    24123226.138    94664720.710        1337.347          35.000  
R07  23561242.691   126125177.283        4096.471          36.000  
> 2022  5  5 15 44 52.9999972  0 19
C19  23269851.917   121172200.472        2536.102          37.000  
C20  23133276.066   120461033.752          -2.376          40.000  
C26  24770402.207   128985937.3191       -848.516          26.000  
C29  21929733.461   114193894.883        -588.836          33.000  
C30  25081014.475   130603427.123       -2300.298          30.000  
C32  26136621.493   136100251.285       -2625.851          30.000  
C35  23096066.426   120267262.4301       1434.786          26.000  
E05                                                                                                                                  27364533.328   107384307.399        1813.932          28.000  
E25                                                                                                                                  27377040.369   107433388.234       -2504.039          30.000  
G01  22624967.161   118895008.731        2161.639          28.000  
G08  20662080.539   108579943.282         868.362          24.000    20662083.237    81082453.047         647.888          19.000  
G10  22351213.777   117456438.772       -2442.116          34.000    22351221.571    87710989.082       -1823.592          27.000  
G16  23073838.014   121253848.336       -3671.829          36.000  
G21  21226439.242   111545674.161         275.092          28.000  
G22  24618840.931   129372854.162        2072.039          32.000  
G23  24746404.421   130043263.604       -3634.518          27.000  
G27  20742078.958   109000343.821       -1338.672          38.000    20742079.857    81396380.918       -1002.282          25.000  
G32  24122814.823   126766259.553        1791.239          42.000    24122825.615    94663148.226        1337.101          34.000  
R07  23560417.063   126120757.312        4098.002          35.000  
> 2022  5  5 15 44 53.9999972  0 16
C19  23269364.754   121169663.242        2538.190          37.000  
C20  23133276.966   120461036.789          -2.833          34.000  
C26  24770563.796   128986784.708        -846.516          34.000  
C29  21929848.882   114194482.507        -586.725          27.000  
C30  25081456.669   130605726.690       -2298.299          26.000  
C35  23095791.516   120265826.725        1436.099          32.000  
E05                                                                                                                                  27364070.448   107382492.387        1816.388          25.000  
G01  22624555.246   118892846.239        2162.848          35.000  
G08  20661915.653   108579074.243         869.569          30.000    20661917.452    81081804.469         647.903          25.000  
G10                                                                  22351686.549    87712819.082       -1820.935          11.000  
G16  23074535.931   121257519.245       -3670.309          36.000  
G21  21226387.078   111545398.499         275.970          30.000  
G22  24618445.505   129370781.511        2073.730          31.000  
G27  20742333.781   109001683.137       -1339.249          36.000    20742335.880    81397383.811       -1002.065          26.000  
G32  24122473.659   126764467.538        1792.564          37.000    24122483.552    94661810.497        1338.667          24.000  
R07  23559650.194   126116652.592        4099.451          36.000  
> 2022  5  5 15 44 54.9999969  0 16
C19  23268784.955   121166657.084        2535.978          36.000  
C20  23133186.728   120460570.764          -2.372          33.000  
C26  24770634.846   128987163.004        -847.119          35.000  
C29  21929871.366   114194599.863        -586.223          27.000  
C30  25081807.426   130607556.447       -2298.232          26.000  
C35  23095426.369   120263922.873        1434.694          32.000  
E05                                                                                                                                  27363517.031   107380323.445        1815.034          24.000  
G01  22624053.394   118890211.157        2161.691          37.000  
G08  20661659.930   108577731.669         870.248          34.000    20661660.830    81080802.824         650.598          24.000  
G10  22352050.797   117460849.1011      -2441.779          22.000    22352060.091                       -1820.585          18.000  
G16  23075143.011   121260716.685       -3670.147          36.000  
G21  21226242.878   111544649.766         275.508          35.000  
G22  24617962.539   129368233.409        2076.878          26.000  
G27  20742497.768   109002549.899       -1339.658          34.000    20742501.065    81398031.006        -998.230          27.000  
G32  24122042.557   126762201.963        1793.040          33.000    24122051.851    94660120.315        1337.397          24.000  
R07  23558795.485   126112077.406        4099.073          34.000  
> 2022  5  5 15 44 55.9999967  0 18
C19  23268239.933   121163808.656        2535.981          26.000  
C20  23133126.470   120460261.674          -3.680          36.000  
C26  24770735.876   128987699.353        -849.715          27.000  
C29  21929924.129   114194874.287        -587.316          32.000  
C30  25082188.162   130609542.548       -2299.089          26.000  
C32  26137984.350   136107343.7551      -2623.182          19.000  
C35  23095092.100   120262176.745        1433.211          25.000  
E05                                                                                                                                  27362993.894   107378273.280        1815.034          27.000  
G01  22623582.120   118887735.253        2160.160          32.000  
G08                                                                  20661434.487    81079918.268         648.950          30.000  
G10  22352455.517   117462977.469       -2444.138          30.000    22352463.911                       -1824.132          27.000  
G16  23075783.068   121264072.067       -3671.161          29.000  
G21  21226130.755   111544059.572         274.471          31.000  
G22  24617507.154   129365841.842        2075.773          26.000  
G23  24748329.688   130053372.3001      -3632.506          13.000  
G27  20742691.733   109003575.337       -1341.334          36.000    20742695.631    81398795.057       -1000.581          31.000  
G32                                                                  24121650.729    94658546.763        1338.015          31.000  
R07  23557971.955   126107669.039        4098.680          29.000  
> 2022  5  5 15 44 56.9999967  0 18
C19  23267753.070   121161273.008        2535.084          38.000  
C20  23133126.470   120460266.213          -5.556          42.000  
C26  24770899.263   128988549.883        -851.115          39.000  
C29  21930037.151   114195462.321        -589.064          42.000  
C30  25082630.356   130611843.300       -2301.575          30.000  
C32  26138487.702   136109968.283       -2625.500          35.000  
C35  23094817.191   120260743.924        1432.371          35.000  
E05                                                                                                                                  27362532.513   107376458.601        1814.940          26.000  
G01  22623172.004   118885576.029        2158.494          37.000  
G08  20661267.502   108575678.5661        867.081          39.000    20661269.301    81079269.964         646.138          36.000  
G10  22352921.694   117465422.613       -2446.291          41.000    22352928.590    87717694.2961      -1826.250          38.000  
G16  23076480.985   121267743.737       -3672.690          34.000  
G21  21226077.992   111543785.583         273.270          37.000  
G22  24617111.428   129363767.489        2073.367          30.000  
G23  24749020.410   130057005.243       -3633.368          33.000  
G27  20742945.658   109004917.319       -1343.161          43.000    20742951.653    81399796.798       -1002.925          40.000  
G32  24121304.169   126758301.9401       1791.810          27.000    24121309.865    94657209.366        1337.518          30.000  
R07  23557206.285   126103570.577        4097.716          35.000  
> 2022  5  5 15 44 57.9999964  0 18
C19  23267176.569   121158269.937        2534.146          42.000  
C20  23133037.431   120459804.407          -7.190          42.000  
C26  24770973.012   128988933.419        -852.260          40.000  
C29  21930060.535   114195583.583        -590.296          41.000  
C30  25082983.512   130613676.915       -2302.214          39.000  
C32  26138901.115   136112125.941       -2626.618          33.000  
C35  23094452.044   120258844.464        1430.346          28.000  
E05                                                                                                                                  27361979.995   107374291.805        1812.677          26.000  
G01  22622671.351   118882945.705        2156.582          40.000  
G08  20661012.379   108574339.425         865.270          37.000    20661015.077    81078270.907         645.768          32.000  
G10  22353299.133   117467396.600       -2447.152          42.000    22353304.229    87719168.363       -1827.721          38.000  
G16  23077089.264   121270944.317       -3673.730          41.000  
G21  21225934.991   111543040.419         271.697          34.000  
G22  24616626.964   129361222.417        2071.847          37.000  
G23  24749620.894   130060166.165       -3633.779          35.000  
G27  20743109.944   109005788.266       -1344.052          42.000    20743117.738    81400446.963       -1003.514          37.000  
G32  24120874.566   126756038.557        1789.799          34.000    24120880.262    94655520.041        1334.294          25.000  
R07  23556352.177   126098998.545        4098.435          39.000  
> 2022  5  5 15 44 58.9999964  0 18
C19  23266687.308   121155735.543        2534.005          41.000  
C20  23133041.329   120459811.331          -7.101          42.000  
C26  24771138.198   128989786.375        -852.732          38.000  
C29  21930174.756   114196173.726        -590.093          42.000  
C30  25083425.406   130615979.184       -2302.236          39.000  
C32  26139405.366   136114753.359       -2627.545          34.000  
C35  23094176.234   120257413.915        1430.881          29.000  
E05                                                                                                                                  27361518.015   107372478.741        1813.913          29.000  
G01  22622259.436   118880788.834        2158.121          37.000  
G08  20660846.294   108573473.516         866.078          39.000    20660851.090    81077624.374         646.829          34.000  
G10  22353766.809   117469842.765       -2446.541          41.000    22353771.006    87720995.611       -1826.790          36.000  
G16  23077788.380   121274618.203       -3674.510          39.000  
G21  21225883.427   111542768.919         271.373          36.000  
G22  24616233.036   129359150.378        2071.611          36.000  
G23  24750311.916   130063800.036       -3634.128          36.000  
G27  20743367.166   109007131.527       -1343.292          45.000    20743373.761    81401450.191       -1003.146          39.000  
G32                                                                  24120540.597    94654184.271        1336.023          31.000  
R07  23555586.507   126094899.454        4097.503          39.000  
> 2022  5  5 15 44 59.9999962  0 17
C19  23266140.486   121152889.374        2533.545          41.000  
C20  23132984.668   120459507.186          -8.473          40.000  
C26  24771240.127   128990326.291        -852.238          38.000  
C29  21930229.018   114196451.375        -590.077          44.000  
C30  25083808.241   130617968.775       -2302.019          40.000  
C32  26139850.558   136117068.818       -2627.937          34.000  
C35  23093841.366   120255669.906        1432.485          33.000  
E05                                                                                                                                  27360995.477   107370429.382        1814.197          28.000  
G01  22621789.061   118878315.926        2158.015          37.000  
G08  20660621.150   108572292.316         865.620          41.000    20660626.546    81076742.961         645.480          34.000  
G10  22354174.527   117471974.887       -2447.388          41.000    22354177.825    87722587.065       -1827.170          38.000  
G16  23078432.034   121277977.148       -3674.193          38.000  
G21  21225770.705   111542182.266         271.678          39.000  
G22  24615773.455   129356763.532        2072.171          37.000  
G27  20743563.830   109008160.029       -1344.360          43.000    20743569.825    81402218.554       -1003.932          40.000  
G32  24120134.079   126752144.5891       1789.302          40.000    24120140.674    94652612.090        1336.120          26.000  
R07  23554760.279   126090476.022        4097.076          42.000  
> 2022  5  5 15 45  0.9999959  0 17
C19  23265565.184   121149887.243        2534.990          40.000  
C20  23132895.929   120459047.149          -7.122          40.000  
C26  24771314.776   128990710.224        -852.569          37.000  
C29  21930252.402   114196572.788        -588.416          44.000  
C30  25084158.998   130619801.779       -2301.046          40.000  
C32  26140265.471   136119228.447       -2627.968          35.000  
C35  23093476.219   120253769.016        1432.924          34.000  
G01  22621289.007   118875685.242        2158.706          38.000  
G08  20660367.225   108570953.706         867.306          41.000    20660372.022    81075743.936         647.037          35.000  
G10  22354549.867   117473949.407       -2446.060          44.000    22354553.465    87724061.701       -1827.566          37.000  
G16  23079041.512   121281178.440       -3672.776          39.000  
G21  21225629.203   111541437.087         273.333          40.000  
G22  24615287.491   129354218.098        2074.948          37.000  
G23  24751547.360   130070280.8291      -3633.737          39.000  
G27  20743729.015   109009031.215       -1342.956          42.000    20743735.011    81402869.381       -1003.908          38.000  
G32  24119696.382   126749882.067        1790.140          40.000    24119710.772    94650923.022        1335.706          26.000  
R07  23553899.874   126085870.624        4097.168          42.000  
> 2022  5  5 15 45  1.9999959  0 17
C19  23265076.822   121147353.575        2532.479          40.000  
C20  23132898.028   120459055.778         -10.136          41.000  
C26  24771478.462   128991563.526        -853.741          38.000  
C29  21930364.525   114197162.391        -591.290          41.000  
C30  25084599.393   130622102.760       -2301.318          35.000  
C32  26140770.621   136121856.711       -2628.763          41.000  
C35  23093201.309   120252336.148        1432.495          38.000  
G01  22620876.193   118873527.252        2156.952          37.000  
G08  20660202.939   108570088.269         863.921          41.000    20660207.136    81075097.465         645.362          35.000  
G10  22355015.145   117476397.153       -2448.494          43.000    22355019.642    87725890.558       -1829.411          36.000  
G16  23079738.230   121284852.464       -3675.103          40.000  
G21  21225577.938   111541165.651         270.256          40.000  
G22  24614893.564   129352144.164        2072.968          35.000  
G23  24752241.979   130073915.245       -3634.804          40.000  
G27  20743985.038   109010375.758       -1345.099          42.000    20743991.034    81403873.622       -1004.757          37.000  
G32  24119356.717   126748092.775        1788.756          39.000    24119369.008    94649586.758        1335.881          30.000  
R07  23553136.303   126081783.335        4096.713          41.000  
> 2022  5  5 15 45  2.9999956  0 17
C19  23264500.621   121144350.763        2536.320          41.000  
C20  23132809.289   120458596.154          -7.575          40.000  
C26  24771553.410   128991949.393        -853.810          35.000  
C29  21930387.908   114197284.099        -588.813          42.000  
C30  25084949.851   130623935.454       -2300.842          33.000  
C32  26141184.934   136124016.779       -2627.899          41.000  
C35  23092836.162   120250435.313        1432.593          38.000  
G01  22620377.339   118870897.610        2158.190          36.000  
G08  20659948.415   108568750.856         865.984          42.000    20659952.612    81074098.798         647.083          37.000  
G10  22355390.485   117478371.962       -2446.562          42.000    22355393.783    87727365.317       -1826.714          36.000  
G16  23080347.408   121288053.982       -3672.548          39.000  
G21  21225435.237   111540421.999         272.590          41.000  
G22  24614409.699   129349598.572        2073.162          35.000  
G23  24752841.564   130077075.878       -3632.547          41.000  
G27  20744151.123   109011247.591       -1343.285          42.000    20744157.119    81404523.813       -1002.085          38.000  
G32  24118926.215   126745829.482        1791.506          39.000    24118937.907    94647897.117        1336.952          30.000  
R07  23552284.593   126077224.330        4100.488          41.000  
> 2022  5  5 15 45  3.9999954  0 17
C19  23263952.901   121141499.153        2541.300          41.000  
C20  23132749.031   120458289.599          -4.348          41.000  
C26  24771656.539   128992489.526        -851.777          31.000  
C29  21930441.571   114197559.467        -586.416          44.000  
C30  25085332.086   130625923.972       -2299.651          25.000  
C32  26141630.126   136126332.175       -2626.514          39.000  
C35  23092498.896   120248689.664        1435.856          38.000  
G01  22619910.562   118868422.482        2161.900          36.000  
G08  20659723.571   108567568.567         868.600          43.000    20659727.768    81073215.998         647.742          35.000  
G10  22355794.605   117480503.139       -2445.620          43.000    22355799.402    87728956.574       -1826.051          37.000  
G16  23080987.165   121291406.619       -3665.403          41.000  
G21  21225323.115   111539832.736         275.896          40.000  
G22  24613955.813   129347208.551        2077.005          34.000  
G23  24753472.328   130080393.574       -3632.335          40.000  
G27  20744347.187   109012273.440       -1339.419          42.000    20744351.984    81405290.425       -1001.968          37.000  
G32  24118523.893   126743720.414        1795.556          41.000    24118536.784    94646324.543        1336.247          24.000  
R07  23551456.566   126072791.726        4107.442          42.000  
> 2022  5  5 15 45  4.9999954  0 16
C19  23263465.738   121138959.976        2537.828          40.000  
C20  23132749.331   120458294.681          -5.844          40.000  
C26  24771818.727   128993339.984        -850.343          37.000  
C29  21930553.394   114198145.584        -587.130          41.000  
C30  25085773.380   130628221.877       -2296.242          30.000  
C32  26142134.377   136128957.189       -2625.015          40.000  
C35  23092223.386   120247254.069        1434.106          39.000  
G08  20659558.685   108566699.874         867.483          42.000    20659562.882    81072568.004         647.942          37.000  
G10  22356260.483   117482947.400       -2444.567          42.000    22356265.280    87730781.811       -1825.884          37.000  
G16  23081685.082   121295074.180       -3669.057          40.000  
G21  21225270.651   111539557.492         274.565          40.000  
G22  24613561.586   129345130.362        2078.791          36.000  
G23  24754165.148   130084023.811       -3630.120          40.000  
G27  20744602.011   109013613.431       -1341.233          41.000    20744607.407    81406290.794       -1000.830          36.000  
G32  24118182.730   126741925.545        1794.063          40.000    24118195.321    94644985.960        1339.698          30.000  
R07  23550688.198   126068678.673        4103.552          40.000  
> 2022  5  5 15 45  5.9999951  0 17
C19  23262888.038   121135954.737        2535.187          41.000  
C20  23132662.391   120457833.210          -8.796          42.000  
C26  24771892.176   128993722.765        -852.291          36.000  
C29  21930576.178   114198265.137        -589.101          41.000  
C30  25086124.437   130630049.800       -2296.907          31.000  
C32  26142550.189   136131114.734       -2627.631          40.000  
C35  23091858.239   120245352.469        1433.055          38.000  
G01  22618998.893   118863627.4611       2159.408          35.000  
G08  20659303.862   108565360.816         865.821          43.000    20659308.059    81071567.780         646.894          36.000  
G10  22356635.523   117484920.895       -2447.037          41.000    22356641.219    87732255.975       -1827.762          38.000  
G16  23082294.560   121298271.891       -3671.938          41.000  
G21  21225129.449   111538811.639         273.161          41.000  
G22  24613077.721   129342578.679        2078.762          36.000  
G23  24754765.333   130087182.874       -3633.215          40.000  
G27  20744767.796   109014483.182       -1344.119          41.000    20744772.893    81406940.215       -1003.517          36.000  
G32  24117750.729   126739659.781        1791.752          38.000    24117763.020    94643292.835        1339.879          30.000  
R07  23549829.592   126064081.810        4101.082          42.000  
> 2022  5  5 15 45  6.9999951  0 17
C19  23262402.674   121133420.921        2533.307          41.000  
C20  23132664.789   120457843.524         -10.768          39.000  
C26  24772055.563   128994575.829        -854.295          35.000  
C29  21930688.900   114198854.782        -590.787          41.000  
C30  25086566.032   130632348.363       -2300.366          30.000  
C32  26143055.040   136133742.841       -2629.470          42.000  
C35  23091583.330   120243918.652        1432.347          38.000  
G01  22618588.477   118861468.697        2157.908          36.000    22618592.374    88760202.2541       1611.553          32.000  
G08  20659139.875   108564495.463         864.058          42.000    20659142.873    81070921.257         644.993          35.000  
G10  22357100.501   117487369.129       -2449.576          42.000    22357106.797    87734084.352       -1829.739          38.000  
G16  23082994.575   121301945.210       -3673.549          41.000  
G21  21225077.285   111538538.761         271.947          40.000  
G22  24612683.794   129340501.560        2075.339          35.000  
G23  24755457.853   130090816.150       -3634.316          43.000  
G27  20745022.020   109015828.094       -1345.765          40.000    20745028.915    81407944.357       -1004.923          38.000  
G32  24117412.563   126737869.835        1789.754          37.000  
R07  23549066.021   126059994.425        4098.966          42.000  
> 2022  5  5 15 45  7.9999949  0 17
C19  23261855.852   121130574.353        2534.029          40.000  
C20  23132605.730   120457542.743         -12.596          39.000  
C26  24772159.591   128995118.379        -855.697          35.000  
C29  21930743.462   114199134.273        -592.554          42.000  
C30  25086947.967   130634337.527       -2302.401          23.000  
C32  26143501.431   136136061.744       -2632.191          42.000  
C35  23091248.461   120242174.702        1430.736          38.000  
G01  22618117.503   118858996.366        2156.568          34.000    22618121.700    88758355.517        1610.355          31.000  
G08  20658916.230   108563317.263         863.070          42.000    20658918.928    81070041.738         643.917          36.000  
G10  22357507.020   117489504.727       -2450.912          44.000  
G16  23083630.435   121305303.012       -3673.456          41.000  
G21  21224965.462   111537952.957         269.577          39.000  
G22  24612229.608   129338111.583        2073.945          36.000  
G23  24756090.415   130094137.140       -3636.891          42.000  
G27  20745218.384   109016859.122       -1346.876          41.000    20745225.279    81408714.546       -1006.710          37.000  
G32  24117012.939   126735764.514        1789.879          34.000  
R07  23548241.292   126055580.126        4100.023          41.000  
> 2022  5  5 15 45  8.9999949  0 17
C19  23261368.989   121128041.034        2533.299          39.000  
C20  23132608.129   120457554.863         -12.369          41.000  
C26  24772323.577   128995974.840        -857.271          35.000  
C29  21930856.784   114199725.412        -591.453          41.000  
C30  25087390.461   130636639.730       -2302.083          31.000  
C32  26144005.681   136138692.113       -2630.267          41.000  
C35  23090973.851   120240743.609        1429.543          39.000  
G01                                                                  22617711.884    88756745.629        1609.305          34.000  
G08  20658751.044   108562454.207         862.274          43.000    20658754.642    81069397.742         643.799          34.000  
G10  22357975.296   117491954.798       -2450.540          41.000  
G16  23084330.151   121308976.677       -3673.755          39.000  
G21  21224913.598   111537683.011         269.148          41.000  
G22  24611835.681   129336037.928        2073.475          36.000  
G23  24756781.137   130097772.172       -3634.911          41.000  
G27  20745475.906   109018206.025       -1346.900          39.000    20745481.302    81409720.122       -1006.206          36.000  
G32  24116673.874   126733975.106        1789.273          38.000  
R07  23547470.825   126051455.888        4099.050          41.000  
> 2022  5  5 15 45  9.9999949  0 17
C19  23260883.925   121125508.219        2531.792          41.000  
C20  23132611.726   120457566.937         -13.011          41.000  
C26  24772488.763   128996832.863        -858.732          34.000  
C29  21930970.105   114200317.274        -592.226          42.000  
C30  25087832.055   130638941.460       -2301.678          35.000  
C32  26144510.232   136141322.311       -2631.167          37.000  
C35  23090699.242   120239313.247        1430.928          39.000  
G01  22617294.273   118854685.9381       2154.234          32.000    22617302.068    88755136.903        1607.432          31.000  
G08  20658585.559   108561592.192         861.895          41.000    20658590.655    81068754.461         643.184          33.000  
G10  22358440.574   117494405.621       -2451.693          43.000  
G16  23085029.567   121312650.770       -3674.342          40.000  
G21  21224861.734   111537414.408         269.523          39.000  
G22  24611440.854   129333964.246        2073.451          33.000  
G23  24757473.058   130101407.557       -3636.042          41.000  
G27  20745732.828   109019552.781       -1347.684          42.000    20745736.725    81410726.326       -1006.574          35.000  
G32  24116334.809   126732185.877        1788.725          35.000  
R07  23546710.551   126047386.111        4099.634          39.000  
> 2022  5  5 15 45 10.9999946  0 18
C19  23260308.923   121122507.829        2532.885          41.000  
C20  23132525.086   120457112.509         -14.621          42.000  
C26  24772563.411   128997222.449        -857.619          26.000  
C29  21930993.189   114200440.986        -593.236          40.000  
C30  25088185.211   130640775.492       -2302.986          38.000  
C32  26144927.843   136143486.353       -2632.798          36.000  
C35  23090333.795   120237414.094        1428.810          37.000  
E04                                                                                                                                  28223663.564   110755718.7951       -603.335          31.000  
G01  22616794.519   118852058.990        2154.304          31.000    22616802.613    88753175.924        1607.916          31.000  
G08  20658330.735   108560257.714         860.696          40.000    20658336.431    81067758.072         642.792          34.000  
G10  22358818.312   117496385.290       -2453.536          42.000  
G16  23085639.344   121315853.010       -3674.186          41.000  
G21  21224720.532   111536672.278         268.389          36.000  
G22  24610955.790   129331418.665        2072.714          31.000  
G23  24758075.341   130104571.565       -3638.462          40.000  
G27  20745898.313   109020428.281       -1348.307          41.000    20745903.110    81411380.759       -1007.706          34.000  
G32  24115905.506   126729924.944        1787.872          36.000  
R07  23545855.244   126042807.478        4100.737          39.000  
> 2022  5  5 15 45 11.9999946  0 18
C19  23259821.161   121119975.609        2529.643          42.000  
C20  23132528.084   120457127.114         -14.930          39.000  
C26  24772729.196   128998081.488        -859.588          34.000  
C29  21931108.310   114201034.300        -592.710          40.000  
C30  25088628.304   130643078.538       -2303.182          36.000  
C32  26145432.394   136146120.090       -2631.569          37.000  
C35  23090060.084   120235985.517        1429.923          37.000  
E04                                                                                                                                  28223817.358   110756323.213        -605.087          32.000  
G01                                                                  22616392.797    88751567.461        1608.350          35.000  
G08  20658167.648   108559397.540         860.782          39.000    20658172.745    81067115.726         641.931          35.000  
G10  22359282.990   117498838.583       -2452.318          42.000  
G16  23086338.460   121319528.105       -3677.197          40.000  
G21  21224671.366   111536404.409         268.636          37.000  
G22  24610560.663   129329345.955        2072.151          31.000  
G23  24758766.063   130108209.556       -3636.061          40.000  
G27  20746154.936   109021777.075       -1348.906          41.000    20746159.732    81412387.851       -1007.088          37.000  
G32  24115565.841   126728137.342        1786.839          31.000  
R07  23545085.676   126038687.410        4097.394          39.000  
> 2022  5  5 15 45 12.9999944  0 17
C19  23259273.740   121117131.223        2534.851          43.000  
C20  23132470.224   120456828.445         -12.000          42.000  
C26  24772835.623   128998629.136        -858.927          35.000  
C29  21931161.073   114201313.164        -589.363          40.000  
C30  25089010.839   130645066.938       -2298.751          38.000  
C32  26145878.785   136148438.684       -2628.774          35.000  
C35  23089725.516   120234242.126        1432.320          37.000  
E04                                                                                                                                  28223910.893   110756691.511        -602.733          31.000  
G01  22615911.330   118847436.3101       2154.528          27.000    22615922.722    88749723.806        1609.267          35.000  
G08  20657945.502   108558220.735         863.505          40.000    20657949.099    81066238.079         643.928          36.000  
G10  22359691.308   117500974.643       -2450.369          40.000    22359695.205    87744244.9801      -1828.881          34.000  
G16  23086978.218   121322888.029       -3672.025          42.000  
G21  21224560.742   111535819.910         269.729          38.000  
G22  24610106.778   129326957.946        2073.612          31.000  
G23  24759398.625   130111529.747       -3633.347          39.000  
G27  20746350.101   109022809.420       -1346.003          40.000    20746356.396    81413158.789       -1005.888          37.000  
R07  23544262.146   126034279.616        4103.133          40.000  
> 2022  5  5 15 45 13.9999941  0 18
C19  23258697.539   121114128.591        2533.673          43.000  
C20  23132382.085   120456371.999         -13.523          41.000  
C26  24772910.571   128999020.086        -858.518          28.000  
C29  21931185.057   114201434.548        -590.066          38.000  
C30  25089363.395   130646897.483       -2299.928          39.000  
C32  26146292.798   136150599.390       -2630.297          38.000  
C35  23089360.368   120232340.361        1433.625          37.000  
E04                                                                                                                                  28223973.849   110756939.686        -600.029          32.000  
G01  22615410.677   118844808.182        2156.446          29.000    22615422.069    88747760.957        1611.075          34.000  
G08  20657690.678   108556884.334         863.675          39.000    20657694.875    81065240.262         645.900          34.000  
G10  22360068.747   117502951.856       -2450.338          40.000    22360072.044    87745721.367       -1830.207          37.000  
G16  23087587.096   121326087.784       -3672.974          43.000  
G21  21224419.840   111535076.679         270.680          37.000  
G22  24609621.414   129324410.392        2075.391          33.000  
G23  24759997.011   130114690.055       -3634.450          39.000  
G27  20746516.785   109023682.188       -1346.028          40.000    20746522.182    81413811.122       -1005.631          33.000  
G32  24114734.517   126723773.4481       1789.578          36.000  
R07  23543406.539   126029698.546        4102.188          40.000  
> 2022  5  5 15 45 14.9999941  0 18
C19  23258212.175   121111594.416        2533.949          43.000  
C20  23132385.083   120456385.447         -13.862          38.000  
C26  24773074.857   128999877.902        -858.014          32.000  
C29  21931298.378   114202025.347        -591.422          38.000  
C30  25089806.788   130649198.095       -2300.494          38.000  
C32  26146799.447   136153231.097       -2632.543          40.000  
C35  23089085.159   120230907.005        1432.726          30.000  
E04                                                                                                                                  28224126.444   110757539.944        -600.471          27.000  
G01  22615000.561   118842651.354        2157.030          37.000    22615011.653    88746149.742        1610.866          37.000  
G08  20657526.392   108556021.652         862.233          39.000    20657530.589    81064595.512         643.341          33.000  
G10  22360533.725   117505403.526       -2452.719          42.000    22360539.121    87747552.307       -1831.179          40.000  
G16  23088286.212   121329760.164       -3672.279          43.000  
G21  21224369.175   111534806.006         270.315          36.000  
G22  24609226.587   129322334.277        2076.412          35.000  
G23  24760694.028   130118325.873       -3636.101          36.000  
G27  20746771.009   109025028.620       -1347.555          38.000    20746778.804    81414817.016       -1006.609          37.000  
G32  24114393.353   126721983.598        1789.432          40.000  
R07  23542639.670   126025593.503        4102.852          41.000  
> 2022  5  5 15 45 15.9999939  0 18
C19  23257664.754   121108748.802        2533.884          40.000  
C20  23132327.223   120456086.532         -13.016          41.000  
C26  24773179.785   129000423.657        -858.763          33.000  
C29  21931353.240   114202304.232        -590.032          38.000  
C30  25090186.625   130651186.448       -2300.294          38.000  
C32  26147243.440   136155550.377       -2631.226          39.000  
C35  23088751.490   120229162.624        1431.549          26.000  
E04                                                                                                                                  28224218.780   110757905.780        -601.447          25.000  
G01  22614530.486   118840179.656        2155.090          38.000    22614540.979    88744303.808        1610.072          38.000  
G08  20657302.747   108554844.023         863.118          39.000    20657306.344    81063716.071         645.017          34.000  
G10  22360940.543   117507540.574       -2451.465          44.000    22360945.340    87749147.946       -1830.092          40.000  
G16  23088925.070   121333118.211       -3672.597          41.000  
G21  21224257.352   111534220.767         269.969          30.000  
G22  24608770.303   129319942.833        2076.630          33.000  
G23  24761326.890   130121647.209       -3636.201          33.000  
G27  20746968.573   109026060.657       -1345.826          39.000    20746975.468    81415588.319       -1006.438          38.000  
G32  24113988.633   126719879.662        1790.613          38.000  
R07  23541809.544   126021149.833        4101.338          39.000  
> 2022  5  5 15 45 16.9999936  0 18
C19  23257089.152   121105748.457        2530.033          41.000  
C20  23132239.684   120455633.296         -15.728          37.000  
C26  24773255.932   129000814.775        -859.992          37.000  
C29  21931376.024   114202427.145        -592.355          41.000  
C30  25090537.083   130653018.608       -2300.748          35.000  
C32  26147658.952   136157714.119       -2633.085          38.000  
C35  23088385.743   120227262.820        1431.286          37.000  
E04                                                                                                                                  28224282.636   110758154.634        -602.951          34.000  
G01  22614031.332   118837552.385        2153.345          38.000    22614041.525    88742341.984        1607.848          39.000  
G08  20657047.624   108553509.915         860.380          41.000    20657052.420    81062718.899         643.148          37.000  
G10  22361317.682   117509520.469       -2454.158          42.000    22361321.579    87750626.036       -1833.274          37.000  
G16  23089533.948   121336320.533       -3676.625          40.000  
G21  21224116.750   111533478.478         269.140          37.000  
G22  24608284.039   129317394.192        2074.721          33.000  
G23  24761927.974   130124810.320       -3635.545          38.000  
G27  20747135.557   109026935.583       -1349.626          41.000    20747142.452    81416242.109       -1008.061          38.000  
G32  24113559.030   126717616.916        1789.721          35.000  
R07  23540954.836   126016574.409        4098.363          40.000  
> 2022  5  5 15 45 17.9999936  0 18
C19  23256603.189   121103218.742        2530.341          42.000  
C20  23132242.082   120455649.844         -16.956          35.000  
C26  24773421.417   129001674.986        -860.538          37.000  
C29  21931490.545   114203020.714        -593.706          41.000  
C30  25090978.377   130655320.357       -2303.217          36.000  
C32  26148165.602   136160348.299       -2635.770          41.000  
C35  23088110.833   120225831.914        1430.413          38.000  
E04                                                                                                                                  28224436.729   110758757.693        -603.916          34.000  
G01  22613622.415   118835398.733        2153.801          37.000    22613631.409    88740733.763        1609.081          38.000  
G08  20656884.237   108552649.951         859.525          42.000    20656889.033    81062076.520         641.580          38.000  
G10  22361785.958   117511975.723       -2456.085          45.000    22361788.656    87752459.246       -1833.052          37.000  
G16  23090233.664   121339997.020       -3675.703          41.000  
G21  21224065.785   111533209.904         268.132          42.000  
G22  24607888.913   129315320.368        2072.816          34.000  
G23  24762619.295   130128446.114       -3636.989          42.000  
G27  20747395.477   109028286.182       -1351.084          38.000    20747399.974    81417250.532       -1009.047          41.000  
G32  24113218.466   126715829.333        1786.347          33.000  
R07  23540189.766   126012479.762        4099.457          41.000  
> 2022  5  5 15 45 18.9999933  0 18
C19  23256026.688   121100220.264        2530.011          42.000  
C20  23132154.243   120455198.978         -17.935          35.000  
C26  24773497.864   129002068.055        -862.172          34.000  
C29  21931513.629   114203146.079        -593.915          41.000  
C30  25091330.933   130657155.337       -2303.697          36.000  
C32  26148581.714   136162515.070       -2634.432          41.000  
C35  23087745.986   120223933.151        1429.229          39.000  
E04                                                                                                                                  28224501.184   110759009.313        -605.149          34.000  
G01  22613124.460   118832772.278        2152.625          36.000    22613131.955    88738772.590        1607.855          36.000  
G08  20656631.212   108551317.936         859.094          42.000    20656636.008    81061081.925         641.143          39.000  
G10  22362162.197   117513958.638       -2455.241          43.000    22362166.095    87753939.683       -1833.623          37.000  
G16  23090841.943   121343200.436       -3675.895          42.000  
G21  21223922.784   111532469.627         266.875          41.000  
G22  24607404.748   129312775.418        2072.468          34.000  
G23  24763219.780   130131610.926       -3637.430          42.000  
G27  20747560.962   109029164.473       -1350.792          42.000    20747567.258    81417906.039       -1007.936          40.000  
G32  24112789.463   126713570.963        1785.313          32.000    24112799.956    94623815.4711       1332.802          34.000  
R07  23539331.460   126007884.792        4100.184          42.000  
> 2022  5  5 15 45 19.9999933  0 18
C19  23255540.724   121097689.553        2530.796          42.000  
C20  23132156.341   120455217.117         -18.652          36.000  
C26  24773661.851   129002932.022        -864.039          34.000  
C29  21931628.150   114203740.257        -594.151          41.000  
C30  25091777.624   130659457.799       -2302.289          34.000  
C32  26149087.164   136165149.691       -2635.905          41.000  
C35  23087471.076   120222504.192        1429.689          38.000  
E04                                                                                                                                  28224655.278   110759614.536        -605.545          33.000  
G01  22612716.142   118830620.345        2153.158          38.000    22612722.438    88737165.226        1606.782          37.000  
G08  20656467.825   108550459.614         858.020          42.000    20656472.022    81060440.472         642.850          36.000  
G10  22362628.674   117516414.222       -2456.934          43.000    22362633.471    87755773.262       -1834.069          37.000  
G16  23091541.958   121346876.465       -3675.765          41.000  
G21  21223870.021   111532203.222         266.256          41.000  
G22  24607010.821   129310702.166        2073.430          36.000  
G23  24763911.401   130135248.737       -3638.967          41.000  
G27  20747818.784   109030515.283       -1351.533          41.000    20747824.180    81418914.443       -1009.057          40.000  
G32  24112450.398   126711785.403        1785.300          33.000    24112459.991    94622482.188        1332.577          26.000  
R07  23538569.687   126003806.672        4101.087          42.000  
> 2022  5  5 15 45 20.9999931  0 28
C19  23254995.102   121094846.824        2529.975          42.000  
C20  23132100.580   120454923.860         -19.898          41.000  
C26  24773767.078   129003482.639        -861.776          33.000  
C29  21931682.412   114204022.344        -593.830          43.000  
C30  25092158.360   130661448.318       -2302.739          31.000  
C32  26149534.154   136167474.089       -2635.735          40.000  
C35  23087135.609   120220762.148        1430.715          37.000  
E02                                                                                                                                  24360577.823    95596138.8801      -1602.073          37.000  
E04                                                                                                                                  28224750.312   110759985.903        -607.178          35.000  
E05                                                                                                                                  27350342.952   107328625.7221       1815.756          28.000  
E09                                                                                                                                  26525937.675   104093477.2271        998.504          24.000  
E25                                                                                                                                  27393679.750   107498677.3961      -2505.062          32.000  
G01  22612249.665   118828151.453        2153.663          36.000    22612252.363    88735322.179        1608.472          32.000  
G08  20656243.880   108549286.011         858.813          42.000    20656248.077    81059563.242         641.472          34.000  
G10  22363037.891   117518555.867       -2456.268          43.000    22363040.889    87757372.759       -1834.264          36.000  
G16  23092182.914   121350237.248       -3676.525          40.000  
G21  21223759.697   111531621.269         267.462          40.000  
G22  24606556.336   129308313.666        2073.349          37.000  
G23  24764543.064   130138572.459       -3638.137          41.000  
G27  20748017.247   109031551.546       -1351.651          43.000    20748020.544    81419688.050       -1009.471          33.000  
G32  24112051.374   126709685.028        1785.071          32.000    24112060.068    94620913.543        1333.618          26.000  
R05  21825500.720   116669809.7171      -1835.968          42.000  
R07  23537744.658   125999390.919        4099.442          41.000  
R10  23813266.818   127027474.2771      -4424.373          40.000  
R11  21261140.818   113613090.4221      -2798.699          42.000  
R12  22139706.300   118266337.1781       1014.434          36.000  
R20  22360790.047   119573193.7031      -2278.773          30.000  
R21  20416676.129   109253759.0551        144.532          42.000  
> 2022  5  5 15 45 21.9999928  0 28
C19  23254419.800   121091848.702        2529.299          42.000  
C20  23132017.537   120454474.410         -19.382          38.000  
C26  24773841.726   129003876.876        -863.851          34.000  
C29  21931706.096   114204148.632        -595.083          42.000  
C30  25092509.717   130663282.441       -2302.054          34.000  
C32  26149949.667   136169641.190       -2635.476          41.000  
C35  23086771.960   120218865.298        1427.254          37.000  
E02                                                                                                                                  24360895.903    95597388.067       -1602.741          35.000  
E04                                                                                                                                  28224815.067   110760239.087        -606.528          36.000  
E05                                                                                                                                  27349790.734   107326457.796        1814.824          29.000  
E09                                                                                                                                  26525592.914   104092124.605        1001.910          25.000  
E25                                                                                                                                  27394228.071   107500828.805       -2504.626          33.000  
G01                                                                  22611752.609    88733361.210        1606.842          32.000  
G08  20655989.056   108547955.749         857.587          42.000    20655995.052    81058569.591         639.807          36.000  
G10  22363414.131   117520539.891       -2456.940          43.000    22363418.927    87758854.090       -1834.893          37.000  
G16  23092792.392   121353440.704       -3675.967          42.000  
G21  21223619.694   111530883.287         264.799          41.000  
G22  24606071.571   129305767.322        2073.832          37.000  
G23  24765148.045   130141737.583       -3637.967          43.000  
G27  20748182.132   109032430.421       -1351.274          44.000    20748187.529    81420344.613       -1009.645          31.000  
G32  24111622.071   126707426.959        1786.002          34.000    24111630.765    94619227.037        1333.087          27.000  
R05  21825754.644   116671167.548       -1837.113          40.000  
R07  23536891.449   125994823.291        4100.014          41.000  
R10  23814004.308   127031407.945       -4425.045          39.000  
R11  21261570.121   113615385.190       -2800.974          41.000  
R12  22139425.095   118264835.125        1011.975          37.000  
R20  22361124.915   119574984.282       -2278.666          27.000  
R21  20416561.309   109253144.355         142.744          42.000  
> 2022  5  5 15 45 22.9999928  0 28
C19  23253932.937   121089317.190        2534.947          42.000  
C20  23132022.634   120454493.058         -16.837          42.000  
C26  24774007.212   129004740.851        -864.235          35.000  
C29  21931820.317   114204741.721        -591.806          38.000  
C30  25092951.611   130665584.725       -2301.551          29.000  
C32  26150455.416   136172277.451       -2636.012          37.000  
C35  23086497.650   120217436.130        1430.310          38.000  
E02                                                                                                                                  24361304.220    95598990.319       -1601.288          36.000  
E04                                                                                                                                  28224969.460   110760845.012        -604.848          32.000  
E05                                                                                                                                  27349327.854   107324642.521        1817.778          29.000  
E09                                                                                                                                  26525337.491   104091123.026        1000.831          25.000  
E25                                                                                                                                  27394866.029   107503332.639       -2502.161          35.000  
G01  22611337.996   118823376.0251       2152.598          35.000    22611343.393    88731754.902        1607.880          34.000  
G08  20655826.569   108547097.471         859.773          40.000    20655832.565    81057929.362         640.193          35.000  
G10  22363881.207   117522995.869       -2455.215          43.000    22363886.603    87760688.244       -1833.779          38.000  
G16  23093491.808   121357115.077       -3671.911          40.000  
G21  21223569.628   111530617.436         266.346          38.000  
G22  24605676.445   129303691.487        2078.753          38.000  
G23  24765838.167   130145375.459       -3638.346          41.000  
G27  20748439.055   109033781.474       -1349.263          39.000    20748445.950    81421353.441       -1008.237          34.000  
G32  24111282.706   126705640.556        1787.631          33.000    24111289.901    94617891.457        1338.163          26.000  
R05  21826095.209   116672988.241       -1835.399          43.000  
R07  23536120.683   125990697.251        4105.516          39.000  
R10  23814838.630   127035858.890       -4420.105          41.000  
R11  21262096.257   113618196.256       -2799.145          36.000  
R12  22139232.328   118263805.676        1012.933          38.000  
R20  22361548.822   119577251.386       -2277.319          30.000  
R21  20416534.327   109252999.757         144.443          41.000  
> 2022  5  5 15 45 23.9999926  0 28
C19  23253386.715   121086471.496        2533.219          42.000  
C20  23131965.074   120454197.213         -15.740          41.000  
C26  24774112.739   129005292.032        -863.464          34.000  
C29  21931874.579   114205020.750        -591.413          41.000  
C30  25093332.048   130667573.514       -2299.877          32.000  
C32  26150900.608   136174599.155       -2632.601          36.000  
C35  23086163.681   120215692.125        1429.318          40.000  
E02                                                                                                                                  24361652.279    95600355.359       -1600.331          33.000  
E04                                                                                                                                  28225062.995   110761213.790        -603.784          32.000  
E05                                                                                                                                  27348803.517   107322587.978        1819.870          33.000  
E09                                                                                                                                  26525023.308   104089886.185        1001.558          28.000  
E25                                                                                                                                  27395443.429   107505598.908       -2501.374          36.000  
G01  22610868.222   118820907.168        2153.993          35.000    22610873.318    88729911.421        1607.793          35.000  
G08  20655605.022   108545921.857         858.982          42.000    20655608.620    81057052.220         642.432          34.000  
G10  22364288.325   117525135.371       -2454.075          43.000    22364293.722    87762285.849       -1832.375          39.000  
G16  23094130.666   121360473.013       -3673.122          41.000  
G21  21223458.405   111530034.294         267.213          39.000  
G22  24605221.360   129301298.618        2078.794          36.000  
G23  24766469.230   130148697.544       -3636.136          36.000  
G27  20748634.519   109034815.094       -1348.506          40.000    20748642.014    81422125.374       -1006.710          37.000  
G32  24110882.483   126703536.706        1789.414          36.000    24110889.079    94616318.786        1337.133          30.000  
R05  21826382.110   116674521.868       -1834.893          42.000  
R07  23535293.555   125986269.413        4104.678          42.000  
R10  23815607.298   127039959.118       -4421.697          41.000  
R11  21262561.835   113620683.898       -2799.123          36.000  
R12  22138979.304   118262454.320        1013.603          39.000  
R20  22361920.265   119579237.364       -2274.562          29.000  
R21  20416443.790   109252515.471         145.641          41.000  
> 2022  5  5 15 45 24.9999926  0 28
C19  23252901.052   121083939.615        2530.989          43.000  
C20  23131968.971   120454215.211         -20.519          41.000  
C26  24774279.123   129006155.509        -863.233          35.000  
C29  21931988.800   114205613.042        -594.767          41.000  
C30  25093772.743   130669872.890       -2300.123          36.000  
C32  26151405.459   136177232.193       -2633.569          35.000  
C35  23085887.872   120214261.796        1429.399          39.000  
E02                                                                                                                                  24362059.697    95601955.325       -1600.402          34.000  
E04                                                                                                                                  28225216.189   110761817.035        -604.207          29.000  
E05                                                                                                                                  27348339.439   107320767.243        1820.385          31.000  
E09                                                                                                                                  26524767.586   104088883.707        1001.559          28.000  
E25                                                                                                                                  27396081.088   107508100.562       -2501.968          35.000  
G01  22610457.206   118818753.545        2153.353          36.000    22610463.502    88728303.937        1607.470          35.000  
G08  20655440.436   108545063.012         857.442          41.000    20655444.933    81056409.543         641.233          36.000  
G10  22364754.802   117527590.757       -2457.738          42.000    22364760.498    87764119.619       -1834.299          36.000  
G16  23094828.883   121364147.040       -3674.429          41.000  
G21  21223407.141   111529766.663         267.112          39.000  
G22  24604824.734   129299221.962        2075.091          37.000  
G23  24767162.050   130152334.314       -3639.156          37.000  
G27  20748891.741   109036164.612       -1351.881          41.000    20748898.037    81423132.230       -1007.245          35.000  
G32  24110541.619   126701746.807        1789.320          36.000  
R05  21826728.370   116676372.404       -1839.520          42.000  
R07  23534526.686   125982164.834        4102.998          42.000  
R10  23816436.824   127044384.462       -4422.128          41.000  
R11  21263082.274   113623465.754       -2799.311          37.000  
R12  22138789.535   118261440.161        1012.370          40.000  
R20  22362343.572   119581500.881       -2274.095          30.000  
R21  20416419.207   109252383.466         143.115          41.000  
> 2022  5  5 15 45 25.9999923  0 27
C19  23252325.150   121080941.104        2529.457          43.000  
C20  23131882.331   120453767.836         -21.078          37.000  
C26  24774355.271   129006551.364        -865.188          36.000  
C29  21932013.083   114205739.548        -595.217          42.000  
C30  25094124.099   130671703.798       -2298.846          28.000  
C32  26151820.671   136179399.271       -2636.777          40.000  
C35  23085524.824   120212364.083        1428.512          39.000  
E02                                                                                                                                  24362378.376    95603204.147       -1603.466          35.000  
E04                                                                                                                                  28225280.645   110762069.155        -605.451          35.000  
E05                                                                                                                                  27347786.022   107318595.948        1817.051          28.000  
E25                                                                                                                                  27396628.809   107510250.038       -2503.152          36.000  
G01  22609957.452   118816127.867        2152.248          37.000    22609964.048    88726344.081        1605.580          35.000  
G08  20655188.610   108543733.209         855.908          41.000    20655191.908    81055415.869         639.478          36.000  
G10  22365134.340   117529576.267       -2458.163          42.000    22365137.338    87765601.434       -1834.804          37.000  
G16  23095438.661   121367349.975       -3676.761          42.000  
G21  21223265.639   111529028.666         263.548          40.000  
G22  24604337.871   129296674.151        2075.921          37.000  
G23  24767765.833   130155500.384       -3637.663          42.000  
G27  20749059.325   109037043.985       -1352.590          42.000    20749064.422    81423787.148       -1008.898          38.000  
G32  24110112.017   126699486.038        1787.205          33.000  
R05  21826983.494   116677736.581       -1840.127          43.000  
R07  23533669.280   125977575.150        4101.391          42.000  
R10  23817175.812   127048326.595       -4424.535          41.000  
R11  21263516.374   113625785.248       -2803.737          38.000  
R12  22138508.330   118259937.816        1008.429          39.000  
R20  22362685.035   119583326.768       -2276.806          29.000  
R21  20416307.385   109251785.713         141.706          42.000  
> 2022  5  5 15 45 26.9999921  0 27
C19  23251779.228   121078099.796        2528.224          43.000  
C20  23131826.869   120453477.081         -23.009          40.000  
C26  24774462.896   129007105.400        -866.735          35.000  
C29  21932067.646   114206022.836        -596.815          41.000  
C30  25094504.836   130673690.726       -2300.239          31.000  
C32  26152267.962   136181724.138       -2637.799          37.000  
C35  23085190.255   120210623.988        1428.435          39.000  
E02                                                                                                                                  24362727.635    95604572.764       -1604.063          35.000  
E04                                                                                                                                  28225375.379   110762439.570        -605.116          28.000  
E05                                                                                                                                  27347262.884   107316542.895        1817.992          33.000  
E25                                                                                                                                  27397207.108   107512518.815       -2505.187          35.000  
G01  22609489.176   118813661.873        2150.448          35.000    22609495.172    88724503.554        1604.732          35.000  
G08  20654965.865   108542562.661         854.686          41.000    20654969.162    81054541.615         638.778          35.000  
G10  22365542.057   117531719.690       -2459.537          43.000    22365545.055    87767201.315       -1836.106          36.000  
G16  23096077.518   121370711.891       -3677.656          42.000  
G21  21223155.615   111528450.065         263.747          39.000  
G22  24603885.784   129294284.118        2073.175          39.000  
G23  24768395.696   130158823.972       -3639.292          40.000  
G27  20749256.289   109038081.698       -1354.563          42.000    20749261.685    81424561.091       -1010.469          32.000  
G32  24109712.094   126697384.030        1785.830          36.000  
R05  21827264.699   116679239.653       -1841.707          42.000  
R07  23532845.150   125973163.140        4100.649          42.000  
R10  23817944.780   127052428.431       -4424.671          42.000  
R11  21263982.851   113628278.212       -2804.564          36.000  
R12  22138258.902   118258605.992        1008.522          40.000  
R20  22363053.180   119585295.450       -2279.212          29.000  
R21  20416218.646   109251310.831         141.853          42.000  
> 2022  5  5 15 45 27.9999921  0 27
C19  23251292.665   121075571.174        2528.584          42.000  
C20  23131831.966   120453499.988         -22.619          42.000  
C26  24774630.180   129007972.863        -868.529          36.000  
C29  21932182.166   114206618.840        -595.446          40.000  
C30  25094947.030   130675992.471       -2302.707          37.000  
C32  26152773.712   136184362.773       -2638.963          34.000  
C35  23084915.346   120209196.332        1426.186          39.000  
E02                                                                                                                                  24363136.252    95606177.139       -1603.572          32.000  
E04                                                                                                                                  28225529.772   110763044.817        -607.234          25.000  
E05                                                                                                                                  27346800.304   107314725.622        1817.604          33.000  
E25                                                                                                                                  27397845.067   107515022.714       -2503.893          33.000  
G01  22609081.159   118811512.146        2149.014          34.000    22609086.555    88722899.003        1604.366          36.000  
G08  20654800.379   108541707.842         854.542          41.000    20654806.075    81053902.937         637.578          35.000  
G10  22366010.033   117534179.797       -2459.907          41.000    22366013.931    87769038.616       -1837.773          37.000  
G16  23096778.433   121374389.035       -3677.925          42.000  
G21  21223106.149   111528186.424         262.689          39.000  
G22  24603493.356   129292210.010        2075.163          38.000  
G23  24769087.018   130162463.959       -3639.665          34.000  
G27  20749513.810   109039435.930       -1354.408          40.000    20749519.806    81425571.990       -1010.999          36.000  
G32  24109372.429   126695598.697        1784.756          41.000  
R05  21827606.762   116681068.244       -1842.496          41.000  
R07  23532080.080   125969067.650        4101.205          43.000  
R10  23818771.907   127056840.114       -4423.891          41.000  
R11  21264507.188   113631079.835       -2804.971          37.000  
R12  22138073.631   118257615.980        1007.210          39.000  
R20  22363477.687   119587565.759       -2279.370          29.000  
R21  20416189.566   109251154.439         141.835          40.000  
> 2022  5  5 15 45 28.9999918  0 27
C19  23250717.963   121072573.769        2528.337          43.000  
C20  23131746.525   120453054.081         -23.764          41.000  
C26  24774707.527   129008373.164        -868.376          35.000  
C29  21932204.351   114206746.045        -595.863          41.000  
C30  25095299.885   130677827.159       -2303.980          37.000  
C32  26153190.723   136186532.904       -2638.573          38.000  
C35  23084553.196   120207300.542        1428.969          40.000  
E02                                                                                                                                  24363454.931    95607427.980       -1603.837          33.000  
E04                                                                                                                                  28225594.827   110763299.680        -608.955          28.000  
E05                                                                                                                                  27346247.187   107312555.184        1816.958          34.000  
E25                                                                                                                                  27398393.087   107517173.441       -2503.809          37.000  
G01  22608582.904   118808890.782        2148.872          35.000    22608587.700    88720941.706        1605.415          36.000  
G08  20654548.254   108540379.830         855.968          40.000    20654554.250    81052911.889         638.602          37.000  
G10  22366386.573   117536166.722       -2460.459          43.000    22366392.269    87770523.154       -1837.649          37.000  
G16  23097387.611   121377593.257       -3677.307          42.000  
G21  21222966.746   111527450.218         265.184          39.000  
G22  24603005.294   129289661.844        2073.190          36.000  
G23  24769688.102   130165630.791       -3639.396          37.000  
G27  20749683.493   109040316.768       -1353.475          40.000    20749689.189    81426230.494       -1011.713          33.000  
G32  24108941.927   126693341.407        1784.492          39.000  
R05  21827859.188   116682417.082       -1842.886          42.000  
R07  23531224.172   125964485.636        4100.476          42.000  
R10  23819512.994   127060793.504       -4424.355          40.000  
R11  21264938.889   113633386.596       -2802.482          38.000  
R12  22137790.626   118256104.108        1008.322          39.000  
R20  22363812.555   119589356.814       -2279.111          31.000  
R21  20416075.645   109250545.318         142.315          41.000  
> 2022  5  5 15 45 29.9999916  0 26
C19  23250172.341   121069734.568        2525.970          42.000  
C20  23131692.562   120452766.591         -24.551          40.000  
C26  24774814.253   129008928.678        -867.463          34.000  
C29  21932258.913   114207030.405        -596.095          39.000  
C30  25095683.920   130679817.989       -2303.620          35.000  
C32  26153638.013   136188859.546       -2639.010          40.000  
C35  23084218.628   120205559.098        1429.525          39.000  
E02                                                                                                                                  24363804.189    95608797.070       -1605.120          35.000  
E04                                                                                                                                  28225690.461   110763673.789        -609.727          32.000  
E05                                                                                                                                  27345724.349   107310503.553        1815.457          32.000  
E25                                                                                                                                  27398971.687   107519442.640       -2505.144          38.000  
G01  22608114.328   118806426.081        2150.208          36.000    22608118.525    88719100.463        1606.343          36.000  
G08  20654325.208   108539208.964         855.534          41.000    20654331.804    81052038.128         638.374          36.000  
G10  22366795.789   117538312.461       -2460.466          42.000    22366800.886    87772125.410       -1837.544          39.000  
G16  23098028.568   121380956.860       -3679.712          41.000  
G21  21222855.523   111526870.249         264.523          39.000  
G22  24602549.310   129287274.942        2070.634          37.000  
G27  20749878.958   109041355.745       -1355.152          36.000    20749887.951    81427007.437       -1012.932          33.000  
G32  24108541.104   126691243.552        1781.936          38.000  
R05  21828145.489   116683947.445       -1843.967          43.000  
R07  23530399.743   125960073.067        4098.549          39.000  
R10  23820282.861   127064900.564       -4426.149          40.000  
R11  21265408.064   113635893.603       -2804.414          38.000  
R12  22137540.899   118254769.963        1009.061          40.000  
R20  22364175.903   119591299.505       -2279.513          27.000  
R21  20415987.506   109250073.569         142.994          41.000  
> 2022  5  5 15 45 30.9999916  0 26
C19  23249687.876   121067208.329        2525.514          41.000  
C20  23131700.057   120452791.419         -24.859          35.000  
C26  24774980.938   129009796.171        -867.902          36.000  
C29  21932374.933   114207626.068        -596.128          43.000  
C30  25096126.413   130682121.862       -2304.085          37.000  
C32  26154148.260   136191497.847       -2638.058          41.000  
C35  23083942.219   120204129.944        1427.853          40.000  
E02                                                                                                                                  24364213.406    95610402.551       -1605.939          36.000  
E04                                                                                                                                  28225846.053   110764282.887        -608.671          33.000  
E05                                                                                                                                  27345261.469   107308688.070        1815.885          29.000  
E25                                                                                                                                  27399610.245   107521948.165       -2505.746          37.000  
G01  22607705.111   118804276.171        2149.628          36.000    22607709.009    88717494.707        1604.782          35.000  
G08  20654163.920   108538354.350         854.568          41.000    20654169.016    81051400.124         637.008          36.000  
G10  22367264.065   117540772.839       -2460.657          43.000    22367269.462    87773962.603       -1837.168          40.000  
G16  23098730.082   121384636.345       -3680.095          41.000  
G21  21222806.057   111526606.370         262.758          39.000  
G22  24602155.682   129285202.679        2072.990          39.000  
G23  24771019.480   130172594.0881      -3639.256          40.000  
G27  20750138.578   109042711.020       -1355.325          32.000    20750146.073    81428020.105       -1012.444          42.000  
G32  24108201.739   126689461.091        1783.206          40.000  
R05  21828491.750   116685798.498       -1843.833          42.000  
R07  23529631.675   125955960.972        4099.199          38.000  
R10  23821113.286   127069329.539       -4425.967          41.000  
R11  21265934.800   113638708.770       -2807.104          38.000  
R12  22137360.424   118253806.100        1006.129          40.000  
R21  20415956.028   109249905.302         141.681          41.000  
> 2022  5  5 15 45 31.9999913  0 27
C19  23249113.174   121064214.999        2525.860          43.000  
C20  23131612.818   120452348.577         -25.880          36.000  
C26  24775057.984   129010195.916        -867.931          36.000  
C29  21932399.816   114207753.887        -595.058          45.000  
C30  25096479.269   130683957.932       -2305.067          36.000  
C32  26154565.271   136193668.715       -2638.165          40.000  
C35  23083578.871   120202233.038        1430.640          39.000  
E02                                                                                                                                  24364532.085    95611655.339       -1605.289          33.000  
E04                                                                                                                                  28225910.509   110764538.394        -608.515          30.000  
E05                                                                                                                                  27344708.352   107306519.402        1815.853          34.000  
E25                                                                                                                                  27400158.565   107524101.333       -2505.485          38.000  
G01  22607207.456   118801654.226        2149.657          35.000    22607209.854    88715536.948        1605.223          36.000  
G08  20653912.394   108537026.862         856.433          41.000    20653915.092    81050409.779         637.950          33.000  
G10  22367642.703   117542761.097       -2459.825          44.000    22367648.099    87775447.365       -1837.278          39.000  
G16  23099339.260   121387844.315       -3679.728          41.000  
G21  21222664.855   111525870.091         265.020          38.000  
G22  24601669.718   129282658.222        2071.715          38.000  
G23  24771621.463   130175760.671       -3637.662          40.000  
G27  20750308.261   109043593.972       -1355.426          44.000    20750313.957    81428679.673       -1012.797          43.000  
G32  24107772.137   126687206.668        1782.063          39.000  
R05  21828747.173   116687164.204       -1843.731          44.000  
R07  23528774.269   125951371.329        4099.411          39.000  
R10  23821854.373   127073282.928       -4425.617          42.000  
R11  21266366.201   113641013.444       -2805.708          37.000  
R12  22137081.917   118252318.808        1009.125          37.000  
R20  22364941.573   119595394.1381      -2273.303          28.000  
R21  20415842.406   109249297.616         144.384          41.000  
> 2022  5  5 15 45 32.9999913  0 27
C19  23248626.611   121061687.865        2527.881          44.000  
C20  23131616.715   120452373.883         -24.950          42.000  
C26  24775224.669   129011063.186        -866.850          36.000  
C29  21932514.036   114208347.621        -593.260          46.000  
C30  25096924.161   130686261.111       -2301.921          39.000  
C32  26155071.621   136196305.339       -2636.349          39.000  
C35  23083304.561   120200800.638        1432.427          39.000  
E02                                                                                                                                  24364940.703    95613259.928       -1604.560          32.000  
E04                                                                                                                                  28226065.202   110765146.126        -607.444          29.000  
E05                                                                                                                                  27344245.473   107304702.544        1817.300          35.000  
E25                                                                                                                                  27400796.823   107526606.153       -2504.205          39.000  
G01                                                                  22606800.638    88713930.845        1607.112          37.000  
G08  20653748.108   108536169.009         857.862          40.000    20653751.705    81049770.580         640.105          34.000  
G10  22368110.379   117545220.160       -2458.700          44.000    22368115.476    87777283.678       -1835.554          38.000  
G16  23100038.376   121391522.520       -3677.694          43.000  
G21  21222616.288   111525603.579         267.024          39.000  
G22  24601278.789   129280584.694        2074.959          36.000  
G23  24772312.485   130179397.682       -3635.682          37.000  
G27  20750566.382   109044947.907       -1353.212          47.000    20750570.879    81429691.402       -1010.786          43.000  
G32  24107433.071   126685422.993        1784.301          39.000  
R05  21829091.634   116689006.024       -1842.280          43.000  
R07  23528007.399   125947266.582        4101.775          40.000  
R10  23822678.503   127077678.875       -4422.563          42.000  
R11  21266893.236   113643829.770       -2803.954          35.000  
R12  22136891.249   118251300.411        1009.868          38.000  
R20  22365368.178   119597674.773       -2275.523          29.000  
R21  20415817.224   109249162.026         145.615          41.000  
> 2022  5  5 15 45 33.9999913  0 27
C19  23248141.846   121059159.909        2528.538          43.000  
C20  23131619.113   120452398.231         -25.041          44.000  
C26  24775392.253   129011929.670        -868.143          37.000  
C29  21932627.658   114208940.946        -594.160          42.000  
C30  25097367.854   130688563.195       -2302.204          37.000  
C32  26155577.071   136198942.366       -2638.433          39.000  
C35  23083028.752   120199369.180        1429.684          38.000  
E02                                                                                                                                  24365349.320    95614864.065       -1604.575          33.000  
E04                                                                                                                                  28226219.295   110765753.279        -607.865          28.000  
E05                                                                                                                                  27343782.293   107302884.540        1818.432          34.000  
E25                                                                                                                                  27401435.081   107529109.706       -2502.335          38.000  
G01  22606389.023   118797351.5251       2152.010          32.000    22606391.121    88712323.599        1607.186          37.000  
G08  20653583.821   108535312.325         855.454          40.000    20653588.918    81049130.292         639.351          38.000  
G10  22368578.655   117547679.428       -2461.082          43.000    22368582.852    87779120.425       -1838.600          35.000  
G16  23100738.691   121395200.075       -3676.862          42.000  
G21  21222563.525   111525337.602         264.593          37.000  
G22  24600883.063   129278509.562        2074.714          38.000  
G23  24773005.305   130183034.107       -3638.459          38.000  
G27  20750823.304   109046301.730       -1354.566          46.000    20750828.101    81430701.502       -1010.177          36.000  
G32  24107094.006   126683638.577        1784.284          41.000  
R05  21829434.897   116690840.364       -1845.261          44.000  
R07  23527248.025   125943201.394        4103.016          40.000  
R10  23823510.727   127082118.167       -4421.803          41.000  
R11  21267417.873   113646633.489       -2805.654          36.000  
R12  22136700.281   118250279.894        1007.513          36.000  
R20  22365792.384   119599943.473       -2275.895          28.000  
R21  20415791.442   109249024.798         142.398          41.000  
> 2022  5  5 15 45 34.9999910  0 27
C19  23247564.746   121056162.342        2527.371          42.000  
C20  23131533.373   120451954.884         -26.204          40.000  
C26  24775469.000   129012329.682        -868.193          31.000  
C29  21932650.742   114209067.213        -595.097          39.000  
C30  25097719.810   130690396.969       -2302.259          34.000  
C32  26155994.382   136201113.883       -2639.427          38.000  
C35  23082664.804   120197472.120        1430.089          40.000  
E02                                                                                                                                  24365668.299    95616115.395       -1603.846          33.000  
E04                                                                                                                                  28226284.350   110766008.731        -607.743          25.000  
E05                                                                                                                                  27343228.577   107300712.077        1819.540          36.000  
E25                                                                                                                                  27401983.102   107531258.595       -2504.368          35.000  
G01                                                                  22605891.667    88710364.233        1605.321          32.000  
G08  20653331.396   108533985.075         855.483          40.000    20653336.193    81048138.255         639.004          35.000  
G10  22368956.694   117549668.709       -2461.469          42.000    22368960.891    87780605.053       -1837.671          34.000  
G16  23101348.469   121398403.294       -3677.746          41.000  
G21  21222421.423   111524600.988         265.269          38.000  
G22  24600399.198   129275961.330        2075.547          34.000  
G23  24773606.989   130186201.220       -3639.471          37.000  
G27  20750989.389   109047183.647       -1354.760          39.000    20750995.984    81431359.566       -1012.022          35.000  
G32  24106665.003   126681381.582        1784.019          34.000  
R05  21829688.521   116692196.401       -1846.719          41.000  
R07  23526386.122   125938587.459        4101.683          43.000  
R10  23824250.315   127086063.941       -4423.669          39.000  
R11  21267850.174   113648943.770       -2806.051          35.000  
R12  22136422.074   118248794.319        1005.969          36.000  
R20  22366128.451   119601740.245       -2277.463          31.000  
R21  20415675.722   109248405.101         142.863          41.000  
> 2022  5  5 15 45 35.9999910  0 26
C19  23247080.881   121053637.598        2523.724          42.000  
C20  23131538.469   120451982.731         -29.266          38.000  
C26  24775635.385   129013197.655        -868.099          32.000  
C29  21932765.862   114209662.970        -596.685          41.000  
C30  25098161.404   130692700.422       -2304.249          40.000  
C32  26156500.731   136203753.088       -2640.010          39.000  
C35  23082386.296   120196042.024        1429.116          37.000  
E02                                                                                                                                  24366077.216    95617719.882       -1605.328          35.000  
E04                                                                                                                                  28226439.642   110766618.187        -609.928          31.000  
E05                                                                                                                                  27342765.397   107298893.971        1817.308          34.000  
E25                                                                                                                                  27402621.060   107533763.411       -2506.218          33.000  
G01  22605479.452   118792577.0441       2150.030          33.000    22605482.150    88708759.292        1604.660          29.000  
G08  20653169.208   108533130.291         854.194          40.000    20653173.106    81047499.035         638.859          33.000  
G10  22369425.569   117552130.719       -2462.624          41.000    22369429.466    87782443.077       -1838.430          35.000  
G16  23102047.285   121402083.957       -3682.286          39.000  
G21  21222373.756   111524336.647         262.789          39.000  
G22  24600004.971   129273887.052        2072.777          37.000  
G23  24774303.107   130189840.622       -3639.409          38.000  
G27  20751246.911   109048539.630       -1357.463          40.000    20751254.106    81432372.449       -1013.930          41.000  
G32  24106325.938   126679598.583        1781.794          39.000  
R05  21830036.880   116694058.757       -1848.013          41.000  
R07  23525618.054   125934476.196        4098.390          40.000  
R10  23825078.341   127090480.910       -4426.033          39.000  
R11  21268372.412   113651734.409       -2807.603          38.000  
R12  22136234.104   118247789.894        1004.475          36.000  
R21  20415653.237   109248284.847         142.700          41.000  
> 2022  5  5 15 45 36.9999908  0 27
C19  23246536.158   121050801.721        2524.106          42.000  
C20  23131483.008   120451699.521         -28.707          34.000  
C26  24775740.911   129013754.446        -870.021          30.000  
C29  21932821.324   114209947.966        -597.836          45.000  
C30  25098543.040   130694692.983       -2305.191          40.000  
C32  26156948.621   136206081.750       -2642.214          39.000  
C35  23082053.827   120194301.418        1427.944          36.000  
E02                                                                                                                                  24366427.074    95619091.253       -1607.608          37.000  
E04                                                                                                                                  28226535.276   110766992.312        -610.529          33.000  
E05                                                                                                                                  27342243.159   107296842.658        1815.616          33.000  
E25                                                                                                                                  27403199.060   107536034.866       -2506.721          32.000  
G01  22605009.378   118790112.773        2148.420          33.000    22605013.275    88706920.473        1603.849          30.000  
G08  20652947.962   108531962.041         852.458          43.000    20652950.060    81046626.143         635.790          33.000  
G10  22369834.786   117554278.829       -2464.098          43.000    22369838.083    87784046.819       -1839.494          36.000  
G16  23102689.741   121405450.775       -3681.420          42.000  
G21  21222266.431   111523759.394         261.279          37.000  
G22  24599550.785   129271500.015        2071.375          37.000  
G23  24774934.770   130193166.081       -3640.561          36.000  
G27  20751445.673   109049582.458       -1358.331          43.000    20751452.568    81433151.445       -1014.510          43.000  
G32  24105926.314   126677502.413        1780.327          40.000  
R05  21830323.482   116695590.848       -1849.497          43.000  
R07  23524796.023   125930075.968        4097.805          40.000  
R10  23825848.209   127094587.723       -4424.958          41.000  
R11  21268837.390   113654219.177       -2810.065          39.000  
R12  22135986.475   118246466.831        1002.631          35.000  
R20  22366910.610   119605923.5281      -2279.749          24.000  
R21  20415563.300   109247803.391         140.539          38.000  
> 2022  5  5 15 45 37.9999908  0 27
C19  23246051.094   121048276.482        2524.654          41.000  
C20  23131487.804   120451728.189         -28.763          38.000  
C26  24775907.596   129014625.529        -872.174          34.000  
C29  21932936.444   114210546.349        -598.247          43.000  
C30  25098985.834   130696997.659       -2305.064          37.000  
C32  26157456.769   136208724.669       -2643.683          38.000  
C35  23081780.716   120192874.290        1427.736          38.000  
E02                                                                                                                                  24366836.590    95620698.340       -1606.932          34.000  
E04                                                                                                                                  28226692.068   110767604.597        -613.769          32.000  
E05                                                                                                                                  27341780.279   107295026.137        1816.548          35.000  
E25                                                                                                                                  27403837.318   107538540.216       -2504.840          35.000  
G01  22604598.662   118787965.094        2147.300          31.000    22604604.658    88705316.770        1602.988          33.000  
G08  20652785.774   108531110.536         851.982          40.000    20652788.772    81045990.540         636.035          35.000  
G10  22370303.361   117556743.816       -2465.105          43.000    22370307.259    87785887.203       -1840.918          36.000  
G16  23103387.957   121409130.503       -3680.376          40.000  
G21  21222216.365   111523498.440         261.710          38.000  
G22  24599155.359   129269426.604        2072.857          39.000  
G23  24775626.990   130196807.295       -3640.495          35.000  
G27  20751704.694   109050940.620       -1357.901          45.000    20751710.989    81434165.769       -1014.243          40.000  
G32  24105587.549   126675721.351        1780.212          43.000  
R05  21830671.241   116697449.910       -1851.346          43.000  
R07  23524027.954   125925963.599        4100.676          39.000  
R10  23826680.133   127099025.402       -4423.836          39.000  
R11  21269369.222   113657060.982       -2809.731          37.000  
R12  22135801.803   118245480.614         999.850          38.000  
R20  22367341.412   119608226.712       -2280.766          27.000  
R21  20415535.119   109247652.935         139.885          39.000  
> 2022  5  5 15 45 38.9999905  0 27
C19  23245476.691   121045284.883        2522.156          42.000  
C20  23131403.263   120451289.109         -29.608          40.000  
C26  24775986.741   129015029.681        -872.838          34.000  
C29  21932957.430   114210676.032        -597.706          39.000  
C30  25099338.090   130698834.460       -2305.806          34.000  
C32  26157873.781   136210898.565       -2641.196          40.000  
C35  23081417.667   120190977.781        1428.346          39.000  
E02                                                                                                                                  24367156.169    95621953.005       -1608.642          35.000  
E04                                                                                                                                  28226758.322   110767864.059        -611.615          35.000  
E05                                                                                                                                  27341227.762   107292857.943        1814.292          36.000  
E25                                                                                                                                  27404385.639   107540692.616       -2505.715          34.000  
G01  22604100.707   118785345.246        2147.086          35.000    22604106.403    88703360.874        1602.878          34.000  
G08  20652534.248   108529785.491         852.651          41.000    20652537.846    81045001.507         636.134          37.000  
G10  22370682.898   117558735.562       -2463.975          43.000    22370686.796    87787375.043       -1840.608          38.000  
G16  23103999.834   121412339.775       -3682.519          42.000  
G21  21222077.262   111522763.204         262.898          39.000  
G22  24598672.993   129266882.851        2070.642          37.000  
G23  24776228.674   130199975.001       -3640.168          35.000  
G27  20751874.077   109051826.971       -1358.783          39.000    20751877.974    81434827.134       -1015.374          33.000  
G32  24105158.846   126673469.221        1779.384          39.000  
R05  21830922.767   116698794.230       -1850.355          43.000  
R07  23523174.745   125921397.117        4097.306          41.000  
R10  23827417.922   127102961.046       -4426.053          40.000  
R11  21269804.821   113659388.969       -2811.639          37.000  
R12  22135527.193   118244013.463         999.401          40.000  
R20  22367683.775   119610057.589       -2280.883          24.000  
R21  20415422.997   109247052.443         141.950          41.000  
> 2022  5  5 15 45 39.9999903  0 27
C19  23244933.168   121042450.127        2522.970          41.000  
C20  23131352.598   120451007.340         -31.203          43.000  
C26  24776094.067   129015589.707        -871.852          35.000  
C29  21933012.891   114210961.438        -598.961          39.000  
C30  25099720.625   130700828.317       -2306.526          34.000  
C32  26158321.071   136213228.099       -2642.757          39.000  
C35  23081083.398   120189236.518        1427.911          38.000  
E02                                                                                                                                  24367506.326    95623326.162       -1608.535          36.000  
E04                                                                                                                                  28226853.956   110768240.317        -611.636          36.000  
E05                                                                                                                                  27340705.224   107290808.104        1814.597          34.000  
E25                                                                                                                                  27404964.838   107542963.481       -2506.436          33.000  
G01  22603629.433   118782883.019        2147.175          34.000    22603638.127    88701521.742        1604.219          34.000  
G08  20652311.802   108528617.917         851.515          42.000    20652316.599    81044130.299         635.979          36.000  
G10  22371092.115   117560885.090       -2465.213          43.000    22371095.713    87788980.261       -1840.698          38.000  
G16  23104642.289   121415707.280       -3682.468          41.000  
G21  21221964.240   111522185.522         261.221          38.000  
G22  24598217.309   129264497.296        2070.856          40.000  
G23  24776862.435   130203301.082       -3641.894          38.000  
G27  20752068.942   109052870.837       -1360.151          37.000    20752075.837    81435607.132       -1015.923          34.000  
G32  24104761.621   126671375.112        1779.355          41.000  
R05  21831211.167   116700336.023       -1852.397          43.000  
R07  23522347.618   125916969.096        4098.399          41.000  
R10  23828188.388   127107070.356       -4425.656          38.000  
R11  21270271.897   113661884.410       -2811.011          38.000  
R12  22135279.865   118242692.646        1000.728          37.000  
R20  22368053.119   119612032.813       -2281.079          25.000  
R21  20415338.155   109246599.146         140.576          42.000  
> 2022  5  5 15 45 40.9999903  0 28
C19  23244448.103   121039925.905        2524.604          42.000  
C20  23131357.694   120451037.927         -29.501          40.000  
C26  24776260.752   129016461.796        -872.975          35.000  
C29  21933130.110   114211559.902        -598.055          41.000  
C30  25100162.819   130703134.337       -2305.474          37.000  
C32  26158828.020   136215871.266       -2644.416          39.000  
C35  23080808.489   120187810.138        1425.748          39.000  
E02                                                                                                                                  24367916.442    95624934.643       -1608.912          35.000  
E04                                                                                                                                  28227009.548   110768852.362        -612.534          35.000  
E05                                                                                                                                  27340242.344   107288992.054        1817.584          35.000  
E09                                                                                                                                  26520016.774   104070229.8331        994.624          35.000  
E25                                                                                                                                  27405603.096   107545468.721       -2504.384          33.000  
G01  22603221.715   118780736.102        2146.211          34.000    22603229.510    88699918.050        1603.046          36.000  
G08  20652149.614   108527766.963         850.480          40.000    20652153.811    81043494.803         634.846          36.000  
G10  22371560.391   117563350.310       -2465.616          43.000    22371564.888    87790821.119       -1840.697          37.000  
G16  23105342.304   121419388.496       -3681.081          42.000  
G21  21221915.973   111521925.696         259.286          37.000  
G22  24597822.782   129262424.147        2073.952          38.000  
G23  24777553.457   130206942.082       -3640.215          37.000  
G27  20752330.361   109054230.001       -1358.799          38.000    20752335.457    81436622.724       -1015.323          41.000  
G32  24104420.457   126669593.958        1781.779          40.000  
R05  21831558.027   116702189.549       -1852.116          44.000  
R07  23521583.746   125912879.927        4101.107          39.000  
R10  23829015.216   127111481.761       -4423.054          40.000  
R11  21270796.234   113664686.743       -2812.491          37.000  
R12  22135085.000   118241651.541         996.622          37.000  
R20  22368479.424   119614312.466       -2280.028          26.000  
R21  20415308.476   109246440.413         138.776          41.000  
> 2022  5  5 15 45 41.9999900  0 28
C19  23243873.401   121036934.040        2524.560          43.000  
C20  23131273.453   120450600.701         -32.005          38.000  
C26  24776338.098   129016866.759        -873.456          36.000  
C29  21933156.492   114211689.921        -599.084          43.000  
C30  25100514.775   130704971.383       -2305.452          40.000  
C32  26159246.231   136218047.001       -2644.725          34.000  
C35  23080444.841   120185914.456        1427.088          40.000  
E02                                                                                                                                  24368236.321    95626189.954       -1607.997          32.000  
E04                                                                                                                                  28227075.802   110769113.511        -614.296          30.000  
E05                                                                                                                                  27339689.527   107286822.220        1816.721          38.000  
E09                                                                                                                                  26519673.212   104068882.400         993.383          34.000  
E25                                                                                                                                  27406152.016   107547620.558       -2504.392          34.000  
G01  22602723.160   118778117.053        2146.549          34.000    22602731.255    88697962.117        1603.025          36.000  
G08  20651896.589   108526443.467         850.305          40.000    20651901.086    81042505.969         635.155          35.000  
G10  22371939.928   117565343.709       -2466.836          42.000    22371945.025    87792309.109       -1842.384          35.000  
G16  23105953.281   121422597.412       -3680.102          42.000  
G21  21221775.071   111521191.817         261.034          39.000  
G22  24597341.015   129259878.772        2072.192          36.000  
G23  24778154.840   130210110.085       -3641.598          34.000  
G27  20752500.343   109055116.823       -1360.001          45.000    20752504.840    81437284.924       -1015.567          41.000  
G32  24103992.653   126667340.932        1780.096          40.000  
R05  21831816.148   116703569.835       -1854.912          41.000  
R07  23520725.441   125908284.996        4101.108          43.000  
R10  23829755.703   127115431.528       -4422.370          40.000  
R11  21271231.833   113667014.432       -2811.427          38.000  
R12  22134810.989   118240187.842         997.134          37.000  
R20  22368815.791   119616111.377       -2279.924          29.000  
R21  20415188.859   109245800.002         139.570          40.000  
> 2022  5  5 15 45 42.9999898  0 28
C19  23243328.678   121034098.232        2521.506          43.000  
C20  23131221.289   120450320.920         -33.132          40.000  
C26  24776446.323   129017428.370        -874.359          33.000  
C29  21933211.054   114211976.120        -598.519          43.000  
C30  25100899.109   130706965.568       -2307.707          38.000  
C32  26159695.320   136220379.477       -2644.224          39.000  
C35  23080110.272   120184174.672        1427.917          40.000  
E02                                                                                                                                  24368586.179    95627562.729       -1608.407          33.000  
E04                                                                                                                                  28227171.736   110769492.306        -613.887          35.000  
E05                                                                                                                                  27339166.089   107284769.862        1815.960          38.000  
E09                                                                                                                                  26519360.229   104067653.807         992.636          34.000  
E25                                                                                                                                  27406730.016   107549889.543       -2504.962          36.000  
G01  22602254.885   118775655.311        2146.636          34.000    22602262.379    88696123.712        1603.129          32.000  
G08  20651675.642   108525277.470         851.213          40.000    20651679.540    81041635.329         635.513          36.000  
G10  22372349.745   117567495.394       -2467.069          44.000    22372353.942    87793916.408       -1841.667          37.000  
G16  23106593.938   121425963.271       -3683.398          44.000  
G21  21221665.647   111520615.410         261.393          39.000  
G22  24596886.830   129257491.174        2072.366          34.000  
G23  24778786.203   130213436.917       -3642.321          37.000  
G27  20752699.705   109056162.039       -1361.154          45.000    20752704.502    81438065.242       -1015.704          39.000  
G32  24103593.629   126665246.561        1777.970          38.000    24103605.021    94587729.9841       1327.471          25.000  
R05  21832101.251   116705093.526       -1855.023          44.000  
R07  23519900.412   125903868.606        4098.559          43.000  
R10  23830523.772   127119528.546       -4424.808          40.000  
R11  21271698.909   113669510.207       -2813.193          37.000  
R12  22134564.260   118238869.426         997.343          39.000  
R20  22369184.536   119618082.923       -2279.870          27.000  
R21  20415101.020   109245330.347         140.554          40.000  
> 2022  5  5 15 45 43.9999898  0 28
C19  23242844.514   121031576.966        2521.843          43.000  
C20  23131227.884   120450353.556         -31.990          44.000  
C26  24776613.607   129018302.363        -874.253          32.000  
C29  21933324.675   114212574.709        -598.864          40.000  
C30  25101341.303   130709272.459       -2306.170          34.000  
C32  26160202.569   136223022.597       -2642.499          40.000  
C35  23079835.362   120182746.817        1427.346          41.000  
E02                                                                                                                                  24368996.295    95629172.174       -1610.094          34.000  
E04                                                                                                                                  28227327.928   110770105.504        -612.691          35.000  
E05                                                                                                                                  27338703.509   107282954.079        1815.743          38.000  
E09                                                                                                                                  26519106.904   104066661.059         993.191          34.000  
E25                                                                                                                                  27407369.173   107552395.524       -2506.197          37.000  
G01  22601846.267   118773508.788        2146.147          36.000    22601854.062    88694520.727        1602.578          34.000  
G08  20651514.954   108524426.677         849.483          39.000    20651517.652    81040999.714         635.193          35.000  
G10  22372820.419   117569961.691       -2466.121          45.000    22372823.117    87795757.421       -1840.128          37.000  
G16  23107293.953   121429646.652       -3682.583          43.000  
G21  21221615.581   111520354.886         259.727          39.000  
G22  24596492.602   129255419.494        2071.327          34.000  
G23  24779476.625   130217079.012       -3641.594          39.000  
G27  20752956.327   109057523.236       -1360.695          40.000    20752963.822    81439081.082       -1016.300          39.000  
G32  24103254.864   126663468.426        1779.036          37.000    24103266.556    94586401.036        1328.679          27.000  
R05  21832447.811   116706945.991       -1854.187          44.000  
R07  23519130.845   125899748.891        4098.850          40.000  
R10  23831358.094   127123978.816       -4425.264          41.000  
R11  21272228.343   113672339.276       -2815.883          38.000  
R12  22134376.290   118237865.569         995.773          41.000  
R20  22369610.541   119620360.611       -2279.464          24.000  
R21  20415074.638   109245188.589         140.837          41.000  
> 2022  5  5 15 45 44.9999895  0 28
C19  23242270.111   121028587.012        2520.417          42.000  
C20  23131141.844   120449918.805         -35.232          40.000  
C26  24776691.254   129018708.215        -874.477          35.000  
C29  21933349.558   114212705.183        -599.220          42.000  
C30  25101693.859   130711110.103       -2306.174          38.000  
C32  26160618.980   136225198.234       -2644.136          38.000  
C35  23079471.414   120180850.783        1428.354          38.000  
E02                                                                                                                                  24369316.773    95630429.135       -1609.868          35.000  
E04                                                                                                                                  28227393.882   110770365.228        -612.864          33.000  
E05                                                                                                                                  27338150.692   107280785.109        1814.794          38.000  
E09                                                                                                                                  26518763.642   104065315.029         992.080          33.000  
E25                                                                                                                                  27407917.793   107554548.745       -2507.132          36.000  
G01  22601348.012   118770890.195        2146.027          35.000    22601355.207    88692565.108        1602.582          32.000  
G08  20651263.128   108523104.527         849.829          39.000    20651266.126    81040011.956         635.210          35.000  
G10  22373199.356   117571956.092       -2467.766          43.000    22373202.954    87797246.699       -1842.342          35.000  
G16  23107904.930   121432856.750       -3683.955          43.000  
G21  21221477.377   111519621.869         260.691          38.000  
G22  24596008.138   129252875.731        2070.548          34.000  
G23  24780082.506   130220248.118       -3642.903          37.000  
G27  20753127.809   109058411.812       -1361.895          42.000    20753133.505    81439744.625       -1017.071          41.000  
G32  24102826.460   126661217.340        1777.595          38.000    24102838.752    94584720.765        1325.513          28.000  
R05  21832706.532   116708329.489       -1856.466          44.000  
R07  23518281.532   125895202.552        4098.128          41.000  
R10  23832101.579   127127945.037       -4424.983          42.000  
R11  21272665.140   113674673.636       -2814.451          37.000  
R12  22134095.085   118236363.346         996.560          38.000  
R20  22369942.711   119622137.258       -2279.932          26.000  
R21  20414958.318   109244566.126         139.851          40.000  
> 2022  5  5 15 45 45.9999895  0 28
C19  23241786.246   121026065.422        2522.361          40.000  
C20  23131148.439   120449953.270         -33.787          36.000  
C26  24776859.737   129019582.788        -875.308          35.000  
C29  21933464.678   114213304.279        -600.218          43.000  
C30  25102136.952   130713416.092       -2305.933          37.000  
C32  26161129.227   136227842.851       -2645.289          38.000  
C35  23079196.805   120179423.509        1426.358          36.000  
E02                                                                                                                                  24369726.290    95632039.272       -1610.451          35.000  
E04                                                                                                                                  28227549.774   110770978.038        -612.715          33.000  
E05                                                                                                                                  27337688.112   107278969.843        1817.330          36.000  
E09                                                                                                                                  26518510.018   104064322.716         992.425          32.000  
E25                                                                                                                                  27408556.351   107557055.209       -2505.229          35.000  
G01  22600939.695   118768744.419        2145.531          31.000    22600946.890    88690962.278        1601.914          31.000  
G08  20651098.542   108522254.456         849.420          39.000    20651103.938    81039377.228         634.072          34.000  
G10  22373669.131   117574423.665       -2467.832          42.000    22373672.129    87799090.648       -1844.478          34.000  
G16  23108604.946   121436540.518       -3682.488          40.000  
G21  21221427.312   111519362.114         259.282          37.000  
G22  24595613.311   129250805.030        2070.919          35.000  
G23  24780778.324   130223891.220       -3643.449          35.000  
G27  20753388.028   109059773.394       -1361.632          46.000    20753392.525    81440761.458       -1015.642          41.000  
G32  24102484.997   126659438.484        1780.336          41.000    24102500.586    94583395.224        1326.256          30.000  
R05  21833056.989   116710203.193       -1856.758          42.000  
R07  23517515.263   125891100.513        4099.960          40.000  
R10  23832930.206   127132365.026       -4423.858          40.000  
R11  21273190.077   113677477.895       -2815.740          40.000  
R12  22133906.515   118235356.045         993.152          37.000  
R20  22370368.116   119624412.161       -2279.670          28.000  
R21  20414937.933   109244457.241         139.283          41.000  
> 2022  5  5 15 45 46.9999892  0 28
C19  23241211.844   121023073.427        2522.081          42.000  
C20  23131067.195   120449518.392         -33.706          42.000  
C26  24776938.283   129019990.102        -875.999          35.000  
C29  21933488.962   114213436.070        -599.720          37.000  
C30  25102492.506   130715253.314       -2305.710          38.000  
C32  26161544.440   136230020.183       -2644.935          38.000  
C35  23078833.156   120177529.600        1427.836          37.000  
E02                                                                                                                                  24370046.168    95633296.801       -1610.708          34.000  
E04                                                                                                                                  28227616.028   110771236.324        -612.175          26.000  
E05                                                                                                                                  27337134.695   107276798.622        1817.654          35.000  
E09                                                                                                                                  26518166.755   104062976.560         993.773          30.000  
E25                                                                                                                                  27409104.971   107559205.935       -2504.117          36.000  
G01  22600441.740   118766126.802        2144.794          30.000    22600448.935    88689007.417        1601.880          36.000  
G08  20650849.115   108520933.644         849.921          38.000    20650853.012    81038390.796         633.358          37.000  
G10  22374047.169   117576419.103       -2467.019          40.000    22374051.067    87800581.367       -1842.573          29.000  
G16  23109214.724   121439748.641       -3682.018          42.000  
G21  21221287.608   111518630.614         259.952          36.000  
G22  24595129.446   129248260.565        2072.333          33.000  
G23  24781380.008   130227062.010       -3643.263          34.000  
G27  20753556.812   109060662.145       -1361.295          40.000    20753560.709    81441424.340       -1017.164          31.000  
G32                                                                  24102071.583    94581714.750        1327.648          30.000  
R05  21833313.012   116711571.379       -1857.892          41.000  
R07  23516659.355   125886519.042        4100.638          42.000  
R10  23833661.999   127136268.360       -4423.199          41.000  
R11  21273620.579   113679779.203       -2814.762          37.000  
R12  22133640.899   118233936.882         992.673          36.000  
R20  22370703.884   119626207.944       -2279.628          28.000  
R21  20414823.712   109243845.649         139.171          41.000  
> 2022  5  5 15 45 47.9999890  0 28
C19  23240667.721   121020240.521        2519.853          42.000  
C20  23131011.434   120449241.105         -35.505          38.000  
C26  24777047.407   129020553.129        -874.321          34.000  
C29  21933544.123   114213722.921        -598.700          38.000  
C30  25102875.341   130717247.214       -2305.682          35.000  
C32  26161994.728   136232352.488       -2645.027          38.000  
C35  23078501.286   120175788.760        1428.641          37.000  
E02                                                                                                                                  24370396.326    95634671.720       -1610.195          34.000  
E04                                                                                                                                  28227712.561   110771613.944        -613.657          32.000  
E05                                                                                                                                  27336611.258   107274746.459        1815.446          35.000  
E09                                                                                                                                  26517853.772   104061748.329         992.015          33.000  
E25                                                                                                                                  27409683.571   107561475.058       -2505.345          33.000  
G01  22599973.164   118763666.062        2146.257          31.000    22599980.359    88687169.778        1601.613          31.000  
G08  20650628.467   108519767.902         850.509          39.000    20650631.465    81037520.977         634.528          34.000  
G10  22374460.583   117578571.259       -2468.094          39.000    22374460.583    87802188.482       -1842.331          35.000  
G16  23109858.078   121443116.920       -3684.655          41.000  
G21  21221176.385   111518054.272         260.659          37.000  
G22  24594675.261   129245873.439        2071.515          33.000  
G23  24782011.071   130230389.385       -3642.161          35.000  
G27  20753755.274   109061708.418       -1361.756          33.000    20753759.771    81442206.053       -1017.235          41.000  
G32  24101659.668   126655091.0621       1777.927          37.000    24101672.559    94580151.786        1327.925          30.000  
R05  21833598.714   116713098.432       -1857.717          40.000  
R07  23515831.029   125882084.928        4098.076          42.000  
R10  23834439.661   127140417.470       -4424.680          39.000  
R11  21274097.849   113682328.881       -2815.260          36.000  
R12  22133395.069   118232623.898         995.492          36.000  
R20  22371068.432   119628157.020       -2279.850          28.000  
R21  20414734.373   109243368.092         141.019          41.000  
> 2022  5  5 15 45 48.9999890  0 27
C19  23240184.455   121017720.387        2521.253          40.000  
C20  23131020.428   120449277.000         -35.576          37.000  
C26  24777215.890   129021427.628        -875.477          32.000  
C29  21933659.244   114214322.058        -599.669          43.000  
C30  25103316.336   130719553.012       -2305.808          32.000  
C32  26162501.077   136234997.536       -2645.775          38.000  
C35  23078226.376   120174360.346        1426.333          37.000  
E02                                                                                                                                  24370806.142    95636281.651       -1610.438          36.000  
E04                                                                                                                                  28227869.353   110772228.027        -614.855          35.000  
E05                                                                                                                                  27336148.978   107272931.759        1814.674          33.000  
E09                                                                                                                                  26517601.347   104060756.072         992.721          33.000  
E25                                                                                                                                  27410321.529   107563980.813       -2505.880          33.000  
G01  22599563.348   118761519.592        2145.963          31.000    22599572.042    88685567.334        1602.006          31.000  
G08  20650466.579   108518918.503         847.339          39.000    20650469.577    81036886.288         634.646          35.000  
G10  22374928.259   117581039.764       -2469.273          43.000    22374930.358    87804031.035       -1842.953          38.000  
G16  23110557.494   121446800.807       -3683.006          40.000  
G21  21221128.119   111517794.162         258.701          36.000  
G22  24594281.333   129243802.062        2071.409          37.000  
G27  20754013.695   109063070.285       -1362.258          45.000    20754018.792    81443223.676       -1017.715          41.000  
G32  24101324.200   126653313.501        1778.695          38.000    24101334.094    94578824.430        1327.317          32.000  
R05  21833945.574   116714952.982       -1859.635          42.000  
R07  23515067.158   125877996.423        4099.931          39.000  
R10  23835264.090   127144814.632       -4422.912          38.000  
R11  21274625.783   113685149.902       -2818.125          40.000  
R12  22133213.095   118231652.599         993.449          37.000  
R20  22371492.038   119630421.936       -2280.020          31.000  
R21  20414704.394   109243207.557         138.699          40.000  
> 2022  5  5 15 45 49.9999887  0 27
C19  23239609.753   121014729.758        2521.928          43.000  
C20  23130937.085   120448843.565         -36.074          40.000  
C26  24777294.736   129021836.083        -876.956          33.000  
C29  21933685.925   114214453.586        -599.374          39.000  
C30  25103668.592   130721389.841       -2305.149          38.000  
C32  26162918.688   136237175.219       -2647.550          39.000  
C35  23077861.229   120172467.205        1426.157          38.000  
E02                                                                                                                                  24371126.920    95637539.014       -1610.089          34.000  
E04                                                                                                                                  28227936.206   110772489.645        -615.588          30.000  
E05                                                                                                                                  27335595.861   107270762.410        1817.380          34.000  
E09                                                                                                                                  26517258.384   104059410.572         992.671          30.000  
E25                                                                                                                                  27410870.149   107566132.839       -2504.969          34.000  
G01  22599063.594   118758901.893        2144.466          31.000    22599074.686    88683613.336        1601.186          35.000  
G08  20650214.154   108517598.774         847.144          39.000    20650218.351    81035899.447         633.527          37.000  
G10  22375306.598   117583036.315       -2470.396          40.000    22375310.195    87805521.551       -1843.283          33.000  
G16  23111168.471   121450010.224       -3682.244          41.000  
G21  21220992.013   111517064.082         258.319          37.000  
G22  24593795.969   129241257.230        2072.396          31.000  
G27  20754182.478   109063960.234       -1363.319          40.000    20754187.875    81443887.087       -1016.097          32.000  
G32  24100894.298   126651061.856        1778.659          36.000    24100905.390    94577143.077        1327.650          32.000  
R05  21834205.794   116716343.889       -1860.987          41.000  
R07  23514213.049   125873423.659        4101.264          41.000  
R10  23836000.680   127148743.777       -4422.169          40.000  
R11  21275062.581   113687484.339       -2818.274          34.000  
R12  22132939.085   118230187.921         991.616          35.000  
R20  22371830.204   119632230.589       -2279.504          29.000  
R21  20414591.073   109242601.343         137.338          41.000  
> 2022  5  5 15 45 50.9999885  0 27
C19  23239065.030   121011895.826        2520.508          43.000  
C20  23130883.722   120448568.451         -37.486          43.000  
C26  24777403.860   129022401.007        -877.127          33.000  
C29  21933740.787   114214739.814        -598.841          37.000  
C30  25104049.928   130723383.427       -2306.621          37.000  
C32  26163367.478   136239510.668       -2646.865          40.000  
C35  23077526.361   120170727.397        1427.627          38.000  
E02                                                                                                                                  24371477.377    95638913.564       -1609.670          36.000  
E04                                                                                                                                  28228033.639   110772871.324        -616.833          31.000  
E05                                                                                                                                  27335072.723   107268708.964        1818.025          33.000  
E09                                                                                                                                  26516945.101   104058182.899         991.366          31.000  
E25                                                                                                                                  27411449.049   107568402.313       -2505.112          38.000  
G01  22598594.419   118756442.006        2145.225          28.000    22598606.410    88681776.465        1601.664          35.000  
G08  20649993.507   108516435.373         848.628          39.000    20649997.104    81035031.227         633.246          37.000  
G10  22375716.114   117585192.097       -2470.576          40.000    22375720.311    87807130.355       -1844.797          35.000  
G16  23111809.727   121453377.724       -3683.590          43.000  
G21  21220882.888   111516489.384         259.637          37.000  
G22  24593342.084   129238869.324        2072.286          25.000  
G27  20754381.541   109065008.670       -1363.678          31.000    20754388.736    81444669.071       -1018.454          35.000  
G32  24100497.373   126648968.025        1777.671          32.000    24100506.966    94575580.322        1326.876          34.000  
R05  21834493.595   116717882.495       -1861.919          42.000  
R07  23513378.427   125868956.475        4099.824          40.000  
R10  23836767.249   127152833.110       -4423.691          40.000  
R11  21275526.959   113689965.677       -2817.224          36.000  
R12  22132695.054   118228884.713         990.246          34.000  
R20  22372197.450   119634194.487       -2281.064          30.000  
R21  20414505.632   109242144.246         139.477          41.000  
> 2022  5  5 15 45 51.9999885  0 27
C19  23238580.565   121009376.792        2518.068          41.000  
C20  23130890.618   120448606.271         -38.336          36.000  
C26  24777572.344   129023278.074        -877.524          37.000  
C29  21933855.008   114215339.227        -600.368          43.000  
C30  25104492.122   130725690.526       -2307.674          35.000  
C32  26163876.825   136242156.664       -2645.637          38.000  
C35  23077253.250   120169299.703        1425.802          38.000  
E02                                                                                                                                  24371887.194    95640524.545       -1611.896          35.000  
E04                                                                                                                                  28228190.131   110773487.703        -615.208          35.000  
E05                                                                                                                                  27334609.244   107266892.090        1815.985          36.000  
E09                                                                                                                                  26516692.376   104057191.990         991.272          33.000  
E25                                                                                                                                  27412087.607   107570908.380       -2507.029          38.000  
G01                                                                  22598197.793    88680175.088        1600.777          35.000  
G08  20649831.319   108515587.175         847.349          40.000    20649835.217    81034398.299         632.549          36.000  
G10  22376186.488   117587662.197       -2470.202          42.000    22376190.686    87808974.967       -1844.713          37.000  
G16  23112510.942   121457062.375       -3685.216          41.000  
G21  21220830.725   111516230.404         258.358          38.000  
G22  24592947.856   129236798.047        2070.318          35.000  
G27  20754639.962   109066372.416       -1363.996          46.000    20754648.056    81445687.761       -1019.077          44.000  
G32  24100160.706   126647191.252        1775.990          39.000    24100168.800    94574253.969        1327.095          31.000  
R05  21834837.457   116719719.958       -1861.434          43.000  
R07  23512617.254   125864881.744        4097.684          37.000  
R10  23837598.874   127157268.964       -4425.426          41.000  
R11  21276050.996   113692766.412       -2819.118          37.000  
R12  22132508.583   118227888.461         989.523          35.000  
R20  22372625.254   119636482.353       -2280.815          28.000  
R21  20414480.749   109242010.553         138.722          43.000  
> 2022  5  5 15 45 52.9999882  0 27
C19  23238006.463   121006387.943        2522.852          41.000  
C20  23130806.976   120448174.880         -34.532          37.000  
C26  24777650.290   129023687.225        -876.594          34.000  
C29  21933881.989   114215470.253        -598.390          45.000  
C30  25104845.877   130727529.450       -2306.644          37.000  
C32  26164293.836   136244334.730       -2646.312          35.000  
C35  23076889.302   120167404.190        1428.881          37.000  
E02                                                                                                                                  24372208.271    95641783.068       -1610.686          35.000  
E04                                                                                                                                  28228256.984   110773750.741        -615.909          32.000  
E05                                                                                                                                  27334057.026   107264723.012        1816.957          36.000  
E09                                                                                                                                  26516350.612   104055847.199         992.537          35.000  
E25                                                                                                                                  27412635.927   107573060.803       -2503.242          36.000  
G01  22597688.146   118751679.7121       2144.788          27.000    22597699.838    88678221.222        1602.499          33.000  
G08  20649581.292   108514266.421         848.910          41.000    20649583.391    81033412.254         634.571          35.000  
G10  22376566.625   117589659.076       -2468.640          42.000    22376571.122    87810466.270       -1844.159          37.000  
G16  23113121.019   121460273.220       -3680.600          41.000  
G21  21220687.724   111515498.712         260.453          38.000  
G22  24592463.991   129234254.806        2071.457          38.000  
G27  20754808.445   109067263.472       -1362.586          45.000    20754817.439    81446353.447       -1018.000          43.000  
G32  24099733.202   126644942.264        1778.335          41.000    24099740.996    94572573.884        1329.214          31.000  
R05  21835095.578   116721100.267       -1860.524          43.000  
R07  23511760.147   125860293.263        4102.777          39.000  
R10  23838334.864   127161195.594       -4420.330          40.000  
R11  21276490.492   113695114.887       -2817.447          39.000  
R12  22132232.774   118226415.542         989.600          38.000  
R20  22372963.420   119638289.920       -2279.743          28.000  
R21  20414363.830   109241384.850         140.135          40.000  
> 2022  5  5 15 45 53.9999882  0 28
C19  23237521.399   121003864.272        2522.475          41.000  
C20  23130814.171   120448210.031         -36.031          43.000  
C26  24777818.173   129024563.469        -875.771          34.000  
C29  21933997.110   114216069.135        -599.155          31.000  
C30  25105288.970   130729834.817       -2304.936          37.000  
C32  26164800.785   136246980.812       -2645.732          37.000  
C35  23076614.092   120165973.796        1430.880          37.000  
E02                                                                                                                                  24372617.788    95643391.916       -1607.978          35.000  
E04                                                                                                                                  28228413.176   110774365.894        -615.183          30.000  
E05                                                                                                                                  27333592.947   107262904.698        1818.777          34.000  
E09                                                                                                                                  26516097.588   104054854.199         992.590          34.000  
E25                                                                                                                                  27413272.686   107575562.288       -2503.721          35.000  
G01  22597281.028   118749533.904        2146.454          31.000    22597290.921    88676617.634        1604.058          36.000  
G08  20649418.205   108513416.526         850.903          40.000    20649421.803    81032777.195         634.901          38.000  
G10  22377036.100   117592127.850       -2468.748          42.000    22377040.897    87812310.143       -1843.277          35.000  
G16  23113821.035   121463952.732       -3680.726          39.000  
G21  21220640.956   111515237.654         261.282          38.000  
G22  24592068.865   129232181.996        2073.372          37.000  
G23  24785938.052   130250986.1301      -3641.707          34.000  
G27  20755069.564   109068625.203       -1361.912          40.000    20755075.560    81447370.679       -1017.164          38.000  
G32  24099390.839   126643162.421        1778.954          42.000    24099401.931    94571244.192        1329.537          31.000  
R05  21835444.536   116722965.350       -1861.167          43.000  
R07  23510995.976   125856202.273        4102.915          39.000  
R10  23839166.189   127165630.002       -4419.771          39.000  
R11  21277017.527   113697931.144       -2816.105          37.000  
R12  22132048.102   118225428.572         990.270          36.000  
R20  22373388.825   119640565.323       -2278.946          28.000  
R21  20414337.748   109241245.428         141.118          41.000  
> 2022  5  5 15 45 54.9999880  0 28
C19  23236976.376   121001031.148        2519.483          39.000  
C20  23130759.908   120447933.876         -36.555          33.000  
C26  24777925.799   129025126.871        -876.107          35.000  
C29  21934051.372   114216355.536        -598.616          43.000  
C30  25105674.203   130731827.654       -2305.494          37.000  
C32  26165247.776   136249313.851       -2645.075          36.000  
C35  23076281.623   120164232.051        1427.956          38.000  
E02                                                                                                                                  24372967.346    95644765.106       -1610.140          34.000  
E04                                                                                                                                  28228509.410   110774744.782        -613.516          33.000  
E05                                                                                                                                  27333069.510   107260851.036        1818.112          34.000  
E09                                                                                                                                  26515784.904   104053626.421         992.368          33.000  
E25                                                                                                                                  27413850.686   107577831.216       -2504.538          31.000  
G01  22596813.352   118747071.734        2146.571          32.000    22596822.345    88674779.264        1603.301          35.000  
G08  20649197.558   108512251.025         848.483          40.000    20649199.357    81031906.439         633.826          33.000  
G10  22377446.516   117594282.296       -2470.239          42.000    22377451.313    87813918.750       -1844.558          39.000  
G16  23114463.490   121467321.094       -3684.693          41.000  
G21  21220533.630   111514661.796         259.389          39.000  
G22  24591613.480   129229794.296        2072.019          36.000  
G23  24786568.516   130254312.621       -3641.565          33.000  
G27  20755270.125   109069673.075       -1363.599          42.000    20755274.922    81448153.078       -1018.269          43.000  
G32  24098992.115   126641069.716        1776.709          38.000    24099003.807    94569680.824        1327.392          29.000  
R05  21835731.438   116724499.143       -1861.864          42.000  
R07  23510171.547   125851789.473        4099.420          40.000  
R10  23839933.058   127169720.415       -4423.472          41.000  
R11  21277484.304   113700425.715       -2818.685          38.000  
R12  22131794.777   118224075.543         990.208          37.000  
R20  22373748.876   119642490.556       -2279.379          27.000  
R21  20414248.410   109240767.298         140.024          41.000  
> 2022  5  5 15 45 55.9999880  0 28
C19  23236492.811   120998510.352        2521.158          38.000  
C20  23130766.204   120447970.668         -36.951          34.000  
C26  24778093.982   129026004.017        -878.514          35.000  
C29  21934165.593   114216954.291        -599.498          42.000  
C30  25106118.496   130734132.483       -2304.573          37.000  
C32  26165755.025   136251959.595       -2646.237          36.000  
C35  23076007.912   120162806.511        1424.392          39.000  
E02                                                                                                                                  24373378.361    95646376.541       -1612.651          34.000  
E04                                                                                                                                  28228666.201   110775358.951        -615.257          32.000  
E05                                                                                                                                  27332606.031   107259032.802        1818.817          33.000  
E09                                                                                                                                  26515532.179   104052634.206         991.877          33.000  
E25                                                                                                                                  27414489.544   107580335.470       -2503.723          33.000  
G01  22596405.634   118744926.493        2143.369          33.000    22596414.328    88673177.010        1601.128          34.000  
G08  20649035.070   108511404.426         845.905          40.000    20649038.668    81031273.606         631.736          36.000  
G10  22377917.490   117596752.927       -2472.259          43.000    22377921.088    87815763.925       -1845.325          35.000  
G16  23115164.405   121471004.510       -3682.825          41.000  
G21  21220485.364   111514404.358         256.621          38.000  
G22  24591217.155   129227721.425        2072.739          39.000  
G23  24787259.837   130257954.502       -3642.612          36.000  
G27  20755529.746   109071036.673       -1364.432          44.000    20755533.943    81449170.901       -1018.173          39.000  
G32  24098654.549   126639292.021        1777.850          40.000    24098665.941    94568353.821        1327.918          29.000  
R05  21836085.792   116726393.707       -1864.495          42.000  
R07  23509400.181   125847660.228        4102.250          40.000  
R10  23840765.282   127174159.786       -4421.110          40.000  
R11  21278008.641   113703226.943       -2822.660          37.000  
R12  22131610.105   118223088.776         984.436          38.000  
R20  22374175.181   119644769.742       -2277.941          24.000  
R21  20414220.229   109240616.985         137.143          40.000  
> 2022  5  5 15 45 56.9999880  0 28
C19  23236010.145   120995991.586        2517.352          44.000  
C20  23130773.399   120448008.985         -40.184          41.000  
C26  24778265.164   129026882.471        -878.626          26.000  
C29  21934281.613   114217555.135        -601.969          35.000  
C30  25106563.088   130736439.735       -2308.867          39.000  
C32  26166263.173   136254606.916       -2648.738          38.000  
C35  23075733.002   120161380.039        1428.179          37.000  
E02                                                                                                                                  24373789.677    95647989.419       -1613.222          36.000  
E04                                                                                                                                  28228823.292   110775974.871        -616.529          33.000  
E05                                                                                                                                  27332142.851   107257214.733        1816.982          35.000  
E09                                                                                                                                  26515279.454   104051642.887         989.776          36.000  
E25                                                                                                                                  27415127.802   107582839.995       -2506.384          36.000  
G01  22595995.518   118742782.610        2144.404          28.000    22596006.610    88671576.675        1600.050          32.000  
G08  20648874.082   108510557.616         846.944          39.000    20648878.279    81030641.681         631.724          37.000  
G10  22378387.565   117599225.657       -2473.527          40.000    22378391.162    87817609.633       -1846.475          36.000  
G16  23115866.219   121474689.118       -3685.724          42.000  
G21  21220436.498   111514146.286         257.995          36.000  
G22  24590823.227   129225649.256        2071.406          34.000  
G23  24787950.859   130261597.490       -3643.428          36.000  
G27  20755789.066   109072402.308       -1366.547          41.000    20755794.163    81450191.100       -1021.290          40.000  
G32  24098315.783   126637516.563        1773.851          38.000    24098328.075    94567026.956        1325.636          27.000  
R05  21836433.851   116728253.587       -1866.309          41.000  
R07  23508635.111   125843564.509        4098.978          40.000  
R10  23841596.007   127178591.637       -4424.180          39.000  
R11  21278540.773   113706070.738       -2820.754          38.000  
R12  22131422.735   118222088.300         987.255          36.000  
R20  22374601.786   119647051.008       -2280.343          28.000  
R21  20414197.145   109240493.227         138.096          42.000  
> 2022  5  5 15 45 57.9999877  0 27
C19  23235437.242   120993005.741        2518.338          42.000  
C20  23130690.656   120447581.442         -41.285          39.000  
C26  24778344.609   129027293.227        -880.245          34.000  
C29  21934306.496   114217688.817        -603.110          43.000  
C30  25106915.344   130738279.815       -2306.359          38.000  
C32  26166682.283   136256787.873       -2650.017          38.000  
C35  23075368.455   120159484.992        1423.263          37.000  
E02                                                                                                                                  24374111.354    95649249.716       -1613.760          35.000  
E04                                                                                                                                  28228891.045   110776239.351        -617.878          34.000  
E05                                                                                                                                  27331590.933   107255045.940        1815.224          34.000  
E09                                                                                                                                  26514937.990   104050300.415         989.589          35.000  
E25                                                                                                                                  27415677.022   107584993.523       -2505.937          35.000  
G01  22595496.663   118740166.289        2142.315          27.000    22595509.254    88669623.827        1598.395          34.000  
G08  20648622.256   108509239.577         843.660          38.000    20648627.353    81029657.375         630.498          37.000  
G10  22378769.800   117601226.666       -2473.860          43.000    22378772.198    87819103.352       -1846.924          37.000  
G16  23116476.596   121477902.461       -3684.971          42.000  
G21  21220298.293   111513415.822         257.176          36.000  
G22  24590339.362   129223106.200        2070.359          37.000  
G27  20755958.749   109073296.108       -1366.257          44.000    20755964.445    81450858.955       -1019.793          41.000  
G32  24097891.877   126635269.761        1776.064          40.000    24097901.170    94565349.246        1324.092          30.000  
R05  21836692.872   116729638.704       -1867.379          43.000  
R07  23507778.604   125838979.536        4099.575          40.000  
R10  23842333.496   127182524.894       -4423.927          38.000  
R11  21278977.870   113708406.590       -2825.087          36.000  
R12  22131151.423   118220639.409         985.398          34.000  
R20  22374941.151   119648866.212       -2281.539          29.000  
R21  20414081.126   109239872.201         135.945          43.000  
> 2022  5  5 15 45 58.9999877  0 27
C19  23234953.376   120990487.788        2515.918          42.000  
C20  23130701.748   120447622.775         -41.828          42.000  
C26  24778513.692   129028174.864        -881.824          36.000  
C29  21934421.016   114218291.363        -602.153          37.000  
C30  25107359.337   130740587.293       -2309.697          41.000  
C32  26167195.527   136259436.912       -2648.874          37.000  
C35  23075095.044   120158060.315        1427.282          38.000  
E02                                                                                                                                  24374522.069    95650863.019       -1613.257          33.000  
E04                                                                                                                                  28229049.336   110776857.602        -618.108          32.000  
E05                                                                                                                                  27331128.054   107253229.852        1815.290          36.000  
E09                                                                                                                                  26514685.565   104049310.361         989.490          36.000  
E25                                                                                                                                  27416315.580   107587499.985       -2507.128          32.000  
G01                                                                  22595102.136    88668025.271        1599.072          36.000  
G08  20648461.867   108508394.814         845.376          39.000    20648466.664    81029026.946         629.411          37.000  
G10  22379240.174   117603700.161       -2474.010          41.000    22379242.573    87820950.448       -1847.507          36.000  
G16  23117176.612   121481587.734       -3686.629          42.000  
G21  21220250.027   111513159.224         256.476          38.000  
G22  24589945.135   129221035.663        2070.081          34.000  
G27  20756218.369   109074662.224       -1367.576          43.000    20756224.065    81451879.234       -1021.250          38.000  
G32  24097553.111   126633494.513        1773.099          39.000    24097563.004    94564023.537        1325.614          29.000  
R05  21837039.132   116731489.376       -1868.035          43.000  
R07  23507016.531   125834900.944        4098.536          41.000  
R10  23843161.523   127186942.567       -4424.686          40.000  
R11  21279507.004   113711233.869       -2823.024          36.000  
R12  22130967.650   118219657.231         983.400          33.000  
R20  22375370.453   119651161.610       -2281.863          30.000  
R21  20414058.042   109239748.310         137.295          42.000  
> 2022  5  5 15 45 59.9999875  0 28
C19  23234409.253   120987659.595        2515.934          41.000  
C20  23130652.283   120447352.987         -42.992          39.000  
C26  24778623.416   129028744.618        -882.301          36.000  
C29  21934476.478   114218581.039        -602.707          40.000  
C30  25107743.071   130742584.442       -2309.247          38.000  
C32  26167644.916   136261773.853       -2650.401          36.000  
C35  23074760.176   120156320.759        1425.193          35.000  
E02                                                                                                                                  24374873.426    95652241.403       -1613.869          36.000  
E04                                                                                                                                  28229146.768   110777240.275        -618.076          34.000  
E05                                                                                                                                  27330605.815   107251179.191        1815.397          37.000  
E09                                                                                                                                  26514373.781   104048086.436         987.692          37.000  
E25                                                                                                                                  27416893.879   107589772.291       -2508.293          29.000  
G01  22594621.869   118735567.0251       2142.269          29.000    22594634.460    88666190.448        1599.944          35.000  
G08  20648241.220   108507234.201         845.397          39.000    20648246.017    81028160.862         632.066          36.000  
G10  22379650.590   117605859.501       -2474.445          43.000    22379653.888    87822563.038       -1847.965          39.000  
G16  23117819.666   121484959.939       -3687.079          41.000  
G21  21220140.902   111512587.833         256.430          37.000  
G22  24589492.149   129218651.569        2068.427          40.000  
G23  24789888.118   130271743.7121      -3644.905          38.000  
G27  20756419.230   109075715.093       -1368.145          41.000    20756423.427    81452665.720       -1021.224          37.000  
G32  24097155.287   126631406.519        1773.214          42.000    24097165.479    94562463.392        1324.288          29.000  
R05  21837331.430   116733052.391       -1869.278          43.000  
R07  23506185.506   125830452.004        4098.234          39.000  
R10  23843930.790   127191045.325       -4423.929          38.000  
R11  21279975.579   113713737.901       -2824.907          38.000  
R12  22130725.418   118218363.542         983.034          36.000  
R20  22375738.299   119653128.998       -2282.483          27.000  
R21  20413977.997   109239320.717         137.286          40.000  
> 2022  5  5 15 46  0.9999872  0 28
C19  23233836.949   120984673.550        2518.912          41.000  
C20  23130569.840   120446927.667         -42.972          41.000  
C26  24778701.362   129029158.400        -880.893          35.000  
C29  21934504.059   114218715.735        -602.805          40.000  
C30  25108095.327   130744425.059       -2309.153          39.000  
C32  26168063.127   136263957.413       -2652.064          37.000  
C35  23074397.127   120154427.360        1425.003          36.000  
E02                                                                                                                                  24375194.804    95653501.557       -1612.466          35.000  
E04                                                                                                                                  28229214.521   110777506.365        -619.769          33.000  
E05                                                                                                                                  27330052.698   107249009.546        1816.384          34.000  
E09                                                                                                                                  26514031.718   104046744.815         990.201          35.000  
E25                                                                                                                                  27417442.500   107591926.117       -2504.971          31.000  
G01  22594123.314   118732951.860        2142.635          30.000    22594136.505    88664237.565        1600.686          36.000  
G08  20647992.093   108505917.306         844.402          40.000    20647995.090    81027176.572         630.187          36.000  
G10  22380031.926   117607862.561       -2476.443          44.000    22380035.224    87824058.609       -1849.139          38.000  
G16  23118430.643   121488172.589       -3684.663          41.000  
G21  21220000.299   111511858.814         257.139          37.000  
G22  24589009.183   129216109.966        2069.434          40.000  
G23  24790493.099   130274917.764       -3647.876          38.000  
G27  20756589.212   109076610.293       -1367.572          41.000    20756594.009    81453333.754       -1019.359          38.000  
G32  24096726.883   126629159.602        1773.693          41.000    24096738.575    94560785.330        1326.381          30.000  
R05  21837588.652   116734427.354       -1871.198          43.000  
R07  23505326.001   125825851.156        4101.745          39.000  
R10  23844667.380   127194975.338       -4419.898          37.000  
R11  21280414.775   113716084.650       -2823.761          38.000  
R12  22130450.208   118216893.483         981.933          35.000  
R20  22376076.465   119654936.711       -2283.081          28.000  
R21  20413856.881   109238672.563         135.636          40.000  
> 2022  5  5 15 46  1.9999872  0 28
C19  23233352.485   120982156.572        2517.086          41.000  
C20  23130577.335   120446971.249         -42.765          39.000  
C26  24778869.546   129030039.656        -881.691          35.000  
C29  21934618.879   114219317.762        -601.002          41.000  
C30  25108538.421   130746733.743       -2308.723          39.000  
C32  26168573.973   136266608.127       -2650.692          38.000  
C35  23074122.817   120153000.945        1427.332          40.000  
E02                                                                                                                                  24375605.519    95655114.649       -1613.108          33.000  
E04                                                                                                                                  28229372.512   110778126.053        -619.913          31.000  
E05                                                                                                                                  27329589.519   107247193.462        1815.889          36.000  
E09                                                                                                                                  26513779.592   104045755.741         988.045          34.000  
E25                                                                                                                                  27418081.057   107594431.843       -2506.237          31.000  
G01                                                                  22593728.487    88662637.463        1599.526          35.000  
G08  20647831.104   108505072.516         844.721          40.000    20647834.701    81026546.164         630.707          37.000  
G10  22380502.301   117610337.689       -2474.822          43.000    22380506.198    87825907.226       -1848.229          39.000  
G16  23119132.757   121491859.250       -3685.916          41.000  
G21  21219950.534   111511602.214         256.821          38.000  
G22  24588617.654   129214040.464        2070.192          39.000  
G23  24791184.120   130278563.159       -3645.010          37.000  
G27  20756849.732   109077978.255       -1367.163          41.000    20756853.030    81454354.135       -1021.765          33.000  
G32  24096389.017   126627386.319        1773.686          41.000    24096401.009    94559458.896        1327.016          22.000  
R05  21837937.610   116736292.649       -1869.567          42.000  
R07  23504566.327   125821784.137        4098.675          40.000  
R10  23845501.403   127199424.229       -4424.200          39.000  
R11  21280940.611   113718894.984       -2825.675          37.000  
R12  22130266.735   118215912.801         981.222          39.000  
R20  22376503.969   119657223.624       -2282.573          26.000  
R21  20413830.799   109238532.796         137.679          41.000  
> 2022  5  5 15 46  2.9999869  0 28
C19  23232779.881   120979172.436        2514.302          42.000  
C20  23130494.292   120446547.283         -47.377          39.000  
C26  24778948.091   129030453.769        -882.610          34.000  
C29  21934645.261   114219451.494        -603.599          40.000  
C30  25108891.576   130748573.980       -2308.634          30.000  
C32  26168990.385   136268790.031       -2650.614          39.000  
C35  23073759.769   120151106.424        1425.025          39.000  
E02                                                                                                                                  24375926.897    95656375.452       -1614.629          37.000  
E04                                                                                                                                  28229440.565   110778392.443        -618.624          36.000  
E05                                                                                                                                  27329036.702   107245024.805        1815.844          31.000  
E09                                                                                                                                  26513437.229   104044414.103         989.040          22.000  
E25                                                                                                                                  27418630.277   107596585.303       -2506.858          33.000  
G01                                                                  22593231.431    88660685.248        1598.964          35.000  
G08  20647579.878   108503755.957         843.212          41.000    20647583.176    81025563.592         628.660          36.000  
G10  22380883.037   117612339.960       -2475.948          41.000    22380887.234    87827402.177       -1848.955          38.000  
G16  23119743.435   121495074.044       -3689.784          40.000  
G21  21219811.730   111510873.867         255.198          39.000  
G22  24588131.391   129211498.039        2068.893          39.000  
G23  24791788.802   130281735.629       -3645.800          40.000  
G27  20757020.014   109078873.694       -1369.988          41.000    20757024.211    81455022.987       -1022.261          39.000  
G32  24095963.312   126625140.466        1772.113          39.000    24095973.205    94557780.387        1323.626          33.000  
R05  21838197.830   116737683.325       -1871.765          41.000  
R07  23503709.820   125817199.509        4097.357          40.000  
R10  23846239.492   127203360.718       -4424.974          39.000  
R11  21281379.508   113721239.977       -2827.508          39.000  
R12  22129993.324   118214452.551         980.408          38.000  
R20  22376841.535   119659027.870       -2281.901          28.000  
R21  20413712.981   109237902.185         136.360          42.000  
> 2022  5  5 15 46  3.9999867  0 28
C19  23232237.856   120976345.538        2514.951          43.000  
C20  23130439.730   120446281.622         -45.939          30.000  
C26  24779057.515   129031024.622        -883.751          32.000  
C29  21934700.123   114219742.519        -603.619          40.000  
C30  25109276.809   130750570.925       -2309.120          24.000  
C32  26169439.474   136271129.018       -2652.006          40.000  
C35  23073425.200   120149369.423        1424.388          37.000  
E02                                                                                                                                  24376279.453    95657755.333       -1615.996          38.000  
E04                                                                                                                                  28229538.297   110778776.624        -620.371          34.000  
E05                                                                                                                                  27328513.864   107242974.019        1814.686          32.000  
E09                                                                                                                                  26513126.944   104043191.366         988.130          28.000  
E25                                                                                                                                  27419210.076   107598857.476       -2507.932          36.000  
G01  22592752.663   118725738.2221       2140.330          36.000    22592764.355    88658851.177        1598.769          35.000  
G08  20647359.530   108502597.952         842.464          41.000    20647362.528    81024698.972         630.291          34.000  
G10  22381294.053   117614501.405       -2477.533          42.000    22381298.250    87829016.026       -1848.955          36.000  
G16  23120385.890   121498447.779       -3689.007          41.000  
G21  21219702.606   111510303.663         254.257          40.000  
G22  24587675.706   129209114.530        2069.294          38.000  
G23  24792419.265   130285066.122       -3646.132          41.000  
G27  20757220.275   109079928.163       -1369.415          38.000    20757225.672    81455810.404       -1023.121          39.000  
G32  24095566.387   126623053.292        1771.910          32.000    24095576.280    94556221.646        1322.893          32.000  
R05  21838488.629   116739238.015       -1872.679          42.000  
R07  23502884.791   125812782.744        4097.961          40.000  
R10  23847004.862   127207443.725       -4424.682          39.000  
R11  21281850.781   113723758.491       -2828.463          41.000  
R12  22129744.796   118213125.495         979.054          36.000  
R20  22377210.879   119661003.256       -2282.130          28.000  
R21  20413629.338   109237454.158         135.434          42.000  
> 2022  5  5 15 46  4.9999867  0 28
C19  23231753.692   120973829.307        2516.331          41.000  
C20  23130448.724   120446327.009         -45.213          40.000  
C26  24779226.598   129031909.381        -886.505          29.000  
C29  21934816.742   114220347.432        -605.371          40.000  
C30  25109719.903   130752879.673       -2308.840          34.000  
C32  26169949.421   136273782.989       -2655.423          36.000  
C35  23073152.689   120147946.636        1422.635          37.000  
E02                                                                                                                                  24376690.768    95659370.173       -1614.068          37.000  
E04                                                                                                                                  28229696.588   110779397.129        -621.466          32.000  
E05                                                                                                                                  27328050.984   107241157.904        1817.037          33.000  
E09                                                                                                                                  26512875.418   104042203.168         988.044          32.000  
E25                                                                                                                                  27419848.634   107601364.533       -2505.315          33.000  
G01  22592347.943   118723598.345        2139.165          38.000    22592356.937    88657252.806        1597.387          30.000  
G08  20647201.240   108501756.817         840.561          42.000    20647203.339    81024069.720         627.741          35.000  
G10  22381766.525   117616979.952       -2478.747          41.000    22381770.423    87830866.223       -1851.575          38.000  
G16  23121088.603   121502134.987       -3686.701          42.000  
G21  21219653.440   111510050.785         253.461          39.000  
G22  24587284.177   129207043.482        2070.671          39.000  
G23  24793118.381   130288714.143       -3649.076          39.000  
G27  20757480.495   109081298.099       -1370.278          40.000    20757486.791    81456833.436       -1022.324          36.000  
G32  24095229.720   126621281.079        1772.438          37.000    24095239.613    94554898.034        1323.216          32.000  
R05  21838841.185   116741122.403       -1875.174          42.000  
R07  23502115.824   125808666.450        4100.353          41.000  
R10  23847836.786   127211881.556       -4422.097          39.000  
R11  21282379.315   113726582.971       -2828.450          41.000  
R12  22129561.623   118212146.810         975.510          38.000  
R20  22377636.884   119663281.679       -2282.743          29.000  
R21  20413605.955   109237329.459         133.123          41.000  
> 2022  5  5 15 46  5.9999864  0 28
C19  23231181.388   120970846.100        2513.639          41.000  
C20  23130368.079   120445904.167         -45.838          43.000  
C26  24779306.643   129032327.631        -885.738          29.000  
C29  21934843.724   114220483.345        -603.798          40.000  
C30  25110073.058   130754720.557       -2309.770          36.000  
C32  26170369.730   136275968.000       -2652.956          36.000  
C35  23072789.940   120146053.611        1425.381          36.000  
E02                                                                                                                                  24377011.846    95660632.303       -1615.557          35.000  
E04                                                                                                                                  28229764.641   110779666.043        -621.951          32.000  
E05                                                                                                                                  27327498.167   107238987.561        1817.450          32.000  
E09                                                                                                                                  26512533.655   104040862.890         986.928          32.000  
E25                                                                                                                                  27420397.554   107603517.669       -2507.109          34.000  
G01  22591852.386   118720986.462        2139.028          31.000    22591860.480    88655302.418        1598.078          34.000  
G08  20646949.115   108500442.271         842.256          40.000    20646953.611    81023088.211         628.933          35.000  
G10  22382149.360   117618984.895       -2476.725          43.000    22382151.759    87832363.830       -1849.577          35.000  
G16  23121698.981   121505350.562       -3689.410          41.000  
G21  21219515.235   111509323.617         254.103          36.000  
G22  24586801.811   129204502.020        2068.674          38.000  
G23  24793721.264   130291888.770       -3646.541          36.000  
G27  20757650.777   109082195.684       -1370.499          40.000    20757656.473    81457502.920       -1022.000          33.000  
G32  24094802.815   126619036.351        1771.042          37.000    24094812.109    94553222.078        1320.886          22.000  
R05  21839097.807   116742494.050       -1873.502          41.000  
R07  23501263.214   125804102.877        4096.848          39.000  
R10  23848578.173   127215835.982       -4425.395          37.000  
R11  21282818.511   113728929.313       -2829.394          39.000  
R12  22129290.311   118210697.181         976.571          37.000  
R20  22377971.753   119665071.821       -2283.178          29.000  
R21  20413487.836   109236696.882         135.829          41.000  
> 2022  5  5 15 46  6.9999864  0 28
C19  23230698.722   120968331.293        2517.243          40.000  
C20  23130381.270   120445949.359         -44.505          45.000  
C26  24779476.925   129033212.807        -884.987          27.000  
C29  21934958.244   114221086.129        -601.490          39.000  
C30  25110515.852   130757030.059       -2308.823          35.000  
C32  26170879.677   136278619.818       -2651.680          35.000  
C35  23072515.930   120144627.649        1426.809          36.000  
E02                                                                                                                                  24377423.461    95662248.116       -1614.828          34.000  
E04                                                                                                                                  28229922.931   110780287.138        -620.467          33.000  
E05                                                                                                                                  27327035.887   107237171.333        1816.660          33.000  
E09                                                                                                                                  26512281.529   104039875.252         987.681          29.000  
E25                                                                                                                                  27421036.412   107606024.569       -2505.633          35.000  
G01  22591447.067   118718847.222        2139.930          32.000    22591453.362    88653703.972        1598.995          33.000  
G08  20646788.426   108499599.512         842.538          39.000    20646793.222    81022459.127         629.577          35.000  
G10  22382620.334   117621460.749       -2475.560          41.000    22382623.632    87834212.850       -1848.044          37.000  
G16  23122401.095   121509038.507       -3685.416          40.000  
G21  21219467.568   111509068.322         256.190          37.000  
G22  24586405.486   129202431.272        2072.942          39.000  
G23  24794412.885   130295534.042       -3644.810          38.000  
G27  20757911.597   109083565.297       -1368.518          39.000    20757915.794    81458525.323       -1022.821          32.000  
G32  24094464.649   126617263.782        1775.240          37.000    24094474.842    94551900.203        1321.817          19.000  
R05  21839450.063   116744377.077       -1872.827          41.000  
R07  23500496.645   125799998.622        4102.866          39.000  
R10  23849408.898   127220267.623       -4420.800          39.000  
R11  21283348.245   113731760.022       -2827.106          41.000  
R12  22129103.840   118209701.509         978.001          37.000  
R20  22378398.357   119667353.486       -2281.858          29.000  
R21  20413462.654   109236562.507         137.036          40.000  
> 2022  5  5 15 46  7.9999862  0 28
C19  23230154.898   120965498.827        2520.767          42.000  
C20  23130330.306   120445681.946         -44.014          36.000  
C26  24779587.549   129033784.529        -882.983          32.000  
C29  21935014.605   114221374.159        -598.781          40.000  
C30  25110898.087   130759025.023       -2305.698          38.000  
C32  26171327.267   136280958.906       -2650.294          35.000  
C35  23072182.560   120142887.655        1430.204          37.000  
E02                                                                                                                                  24377774.218    95663626.450       -1612.679          32.000  
E04                                                                                                                                  28230020.364   110780670.600        -618.091          30.000  
E05                                                                                                                                  27326512.449   107235117.621        1820.211          35.000  
E09                                                                                                                                  26511969.445   104038651.038         990.535          31.000  
E25                                                                                                                                  27421614.112   107608293.064       -2502.782          34.000  
G01  22590980.290   118716391.162        2142.414          29.000    22590985.086    88651869.828        1599.923          33.000  
G08  20646568.378   108498439.322         847.363          39.000    20646572.275    81021593.724         631.041          35.000  
G10  22383029.251   117623620.679       -2472.741          43.000    22383034.648    87835825.506       -1847.417          36.000  
G16  23123042.950   121512406.113       -3682.056          42.000  
G21  21219361.442   111508495.787         259.789          37.000  
G22  24585950.101   129200040.901        2075.552          35.000  
G23  24795043.648   130298863.210       -3641.637          36.000  
G27  20758113.657   109084616.511       -1365.107          39.000    20758117.254    81459311.410       -1020.342          40.000  
G32  24094064.426   126615171.569        1777.259          38.000    24094076.718    94550340.671        1327.433          21.000  
R05  21839740.862   116745931.820       -1871.070          40.000  
R07  23499673.415   125795592.229        4105.384          41.000  
R10  23850174.868   127224353.288       -4416.189          40.000  
R11  21283818.319   113734272.947       -2825.620          36.000  
R12  22128864.306   118208421.530         980.856          38.000  
R20  22378764.704   119669312.755       -2278.960          28.000  
R21  20413376.314   109236100.511         140.496          40.000  
> 2022  5  5 15 46  8.9999859  0 27
C19  23229581.395   120962511.371        2517.294          43.000  
C20  23130248.162   120445256.697         -42.662          43.000  
C26  24779667.293   129034198.350        -882.114          35.000  
C29  21935039.188   114221504.316        -600.452          37.000  
C30  25111250.043   130760861.291       -2304.060          38.000  
C32  26171745.178   136283139.899       -2648.531          34.000  
C35  23071816.814   120140988.819        1428.916          38.000  
E02                                                                                                                                  24378095.296    95664886.052       -1613.140          31.000  
E04                                                                                                                                  28230087.817   110780935.243        -616.629          32.000  
E05                                                                                                                                  27325959.032   107232944.513        1819.775          35.000  
E09                                                                                                                                  26511627.382   104037306.934         991.113          33.000  
E25                                                                                                                                  27422161.832   107610442.773       -2502.569          34.000  
G01  22590482.634   118713774.668        2144.457          33.000    22590487.131    88649915.582        1601.723          33.000  
G08  20646317.752   108497119.161         846.472          39.000    20646321.349    81020608.682         632.394          35.000  
G10  22383409.688   117625620.842       -2473.893          41.000    22383415.384    87837319.725       -1846.494          36.000  
G16  23123652.429   121515617.012       -3685.008          42.000  
G21  21219223.537   111507763.219         258.086          38.000  
G22  24585465.636   129197493.154        2073.940          34.000  
G23  24795648.330   130302031.466       -3641.566          35.000  
G27  20758284.239   109085508.647       -1365.520          39.000    20758288.136    81459978.149       -1019.632          38.000  
G32  24093636.922   126612922.530        1775.370          41.000    24093647.415    94548661.750        1325.441          18.000  
R05  21840001.382   116747324.680       -1871.840          37.000  
R07  23498816.008   125791002.849        4102.453          43.000  
R10  23850911.458   127228282.995       -4420.279          39.000  
R11  21284255.417   113736607.928       -2826.291          35.000  
R12  22128590.596   118206959.745         979.304          37.000  
R21  20413260.894   109235482.938         140.051          41.000  
> 2022  5  5 15 46  9.9999859  0 28
C19  23229098.430   120959995.303        2515.943          42.000  
C20  23130255.957   120445300.009         -44.146          43.000  
C26  24779836.976   129035081.070        -883.501          31.000  
C29  21935155.808   114222106.543        -603.608          36.000  
C30  25111694.935   130763167.803       -2308.278          38.000  
C32  26172253.326   136285788.574       -2649.496          36.000  
C35  23071543.403   120139561.058        1426.124          37.000  
E02                                                                                                                                  24378506.911    95666500.177       -1615.370          31.000  
E04                                                                                                                                  28230245.807   110781552.943        -620.126          35.000  
E05                                                                                                                                  27325495.253   107231124.900        1817.795          34.000  
E09                                                                                                                                  26511374.957   104036316.901         987.627          34.000  
E25                                                                                                                                  27422799.791   107612946.682       -2505.353          31.000  
G01                                                                  22590078.514    88648314.720        1600.060          29.000  
G08  20646158.862   108496274.933         840.643          39.000    20646160.361    81019977.010         629.736          34.000  
G10  22383881.561   117628096.758       -2478.459          41.000    22383886.358    87839168.355       -1852.011          37.000  
G16  23124355.742   121519303.074       -3686.822          42.000  
G21  21219174.671   111507507.639         254.368          36.000  
G22  24585071.409   129195419.937        2072.264          29.000  
G23  24796342.349   130305674.801       -3646.590          37.000  
G27  20758542.060   109086875.337       -1368.576          30.000    20758549.855    81460999.593       -1023.461          40.000  
G32  24093299.356   126611148.465        1773.053          40.000    24093309.249    94547336.785        1324.916          20.000  
R05  21840353.938   116749209.522       -1876.700          40.000  
R07  23498047.640   125786889.593        4101.531          40.000  
R10  23851743.082   127232718.519       -4420.711          40.000  
R11  21284782.752   113739426.370       -2828.500          37.000  
R12  22128408.921   118205988.745         975.614          37.000  
R20  22379521.080   119673357.1511      -2278.665          28.000  
R21  20413234.212   109235340.093         135.301          40.000  
> 2022  5  5 15 46 10.9999857  0 27
C19  23228554.606   120957166.958        2514.063          42.000  
C20  23130206.791   120445035.229         -49.181          39.000  
C26  24779947.299   129035654.273        -886.409          32.000  
C29  21935210.670   114222398.569        -604.062          34.000  
C30  25112078.370   130765165.400       -2310.283          40.000  
C32  26172702.415   136288128.116       -2653.445          38.000  
C35  23071210.633   120137824.449        1423.991          37.000  
E02                                                                                                                                  24378859.167    95667880.212       -1615.312          34.000  
E04                                                                                                                                  28230344.439   110781939.514        -622.769          30.000  
E05                                                                                                                                  27324972.115   107229071.327        1817.317          34.000  
E25                                                                                                                                  27423378.690   107615216.187       -2505.772          30.000  
G01  22589606.641   118709173.1441       2141.533          30.000    22589611.138    88646480.246        1598.118          32.000  
G08  20645940.313   108495119.832         840.931          38.000    20645940.313    81019113.167         627.664          35.000  
G10  22384293.176   117630262.289       -2480.500          40.000    22384297.973    87840785.211       -1851.698          33.000  
G16  23124996.998   121522674.417       -3688.740          42.000  
G21  21219063.748   111506938.737         253.567          37.000  
G22  24584616.024   129193032.991        2070.733          28.000  
G23  24796979.708   130309009.358       -3649.508          37.000  
G27  20758740.523   109087929.951       -1371.352          39.000    20758751.615    81461788.799       -1025.102          38.000  
G32  24092903.330   126609061.556        1769.840          40.000    24092912.024    94545776.817        1323.099          29.000  
R05  21840648.933   116750785.933       -1879.022          41.000  
R07  23497223.810   125782478.803        4099.392          40.000  
R10  23852514.148   127236831.568       -4422.250          41.000  
R11  21285252.227   113741934.327       -2830.768          37.000  
R12  22128167.888   118204701.366         971.922          37.000  
R20  22379887.426   119675315.689       -2281.514          27.000  
R21  20413150.570   109234892.587         134.312          40.000  
> 2022  5  5 15 46 11.9999854  0 27
C19  23227981.703   120954185.532        2512.203          41.000  
C20  23130126.447   120444615.659         -49.256          36.000  
C26  24780028.543   129036073.193        -887.999          37.000  
C29  21935236.452   114222534.381        -604.382          38.000  
C30  25112430.326   130767006.954       -2310.013          39.000  
C32  26173126.621   136290313.721       -2654.350          39.000  
C35  23070845.486   120135931.380        1424.782          38.000  
E02                                                                                                                                  24379181.444    95669143.782       -1617.495          32.000  
E04                                                                                                                                  28230413.391   110782209.345        -623.083          32.000  
E05                                                                                                                                  27324419.898   107226902.652        1814.631          33.000  
E25                                                                                                                                  27423927.610   107617370.838       -2507.008          30.000  
G01  22589109.585   118706560.349        2138.771          35.000    22589114.382    88644529.824        1596.905          32.000  
G08  20645689.087   108493805.999         840.424          38.000    20645690.586    81018132.487         628.008          34.000  
G10  22384674.812   117632269.428       -2479.548          36.000    22384679.609    87842283.284       -1850.578          37.000  
G16  23125609.773   121525891.393       -3689.957          42.000  
G21  21218924.644   111506212.846         253.368          38.000  
G22  24584132.159   129190490.622        2068.657          31.000  
G23  24797583.190   130312185.313       -3647.951          34.000  
G27                                                                  20758922.797    81462460.922       -1024.848          42.000  
G32  24092475.826   126606819.109        1770.718          41.000    24092484.520    94544101.680        1322.021          21.000  
R05  21840909.153   116752177.211       -1878.331          40.000  
R07  23496366.704   125777891.424        4097.476          42.000  
R10  23853250.438   127240759.875       -4424.587          41.000  
R11  21285699.817   113744326.984       -2833.164          37.000  
R12  22127897.775   118203258.393         970.825          35.000  
R20  22380223.793   119677114.869       -2282.518          27.000  
R21  20413031.552   109234255.820         135.042          41.000  
> 2022  5  5 15 46 12.9999854  0 26
C19  23227499.337   120951672.243        2516.648          42.000  
C20  23130135.440   120444665.467         -49.579          36.000  
C26  24780199.425   129036962.217        -890.100          36.000  
C29  21935352.172   114223139.171        -605.280          40.000  
C30  25112874.019   130769316.189       -2309.562          38.000  
C32  26173636.269   136292970.076       -2658.765          39.000  
C35  23070573.574   120134508.264        1421.314          37.000  
E02                                                                                                                                  24379594.258    95670761.538       -1616.796          33.000  
E04                                                                                                                                  28230572.281   110782832.917        -625.449          32.000  
E05                                                                                                                                  27323957.018   107225087.278        1817.474          35.000  
E25                                                                                                                                  27424566.468   107619877.417       -2505.231          33.000  
G01  22588703.366   118704422.068        2137.489          34.000    22588708.163    88642933.509        1595.782          35.000  
G08  20645526.899   108492967.296         837.209          39.000    20645530.197    81017505.253         626.496          34.000  
G10  22385146.985   117634750.007       -2482.208          41.000    22385151.182    87844134.869       -1853.108          33.000  
G16  23126310.688   121529580.007       -3685.210          42.000  
G21  21218877.877   111505960.324         251.209          37.000  
G23  24798276.011   130315832.734       -3648.569          36.000  
G27  20759177.620   109090202.4161      -1373.366          45.000    20759183.916    81463486.263       -1025.677          37.000  
G32  24092140.358   126605048.313        1771.466          42.000  
R05  21841257.212   116754037.136       -1882.140          40.000  
R07  23495604.332   125773810.496        4104.023          42.000  
R10  23854075.767   127245162.535       -4418.960          40.000  
R11  21286227.751   113747148.064       -2833.023          36.000  
R12  22127718.199   118202299.371         967.865          35.000  
R20  22380648.899   119679387.862       -2283.643          27.000  
R21  20413013.265   109234157.564         131.384          40.000  
> 2022  5  5 15 46 13.9999852  0 27
C19  23226956.712   120948845.839        2512.432          43.000  
C20  23130085.375   120444403.211         -50.278          41.000  
C26  24780313.946   129037538.731        -887.639          35.000  
C29  21935407.633   114223431.700        -604.733          37.000  
C30  25113259.252   130771314.137       -2310.047          38.000  
C32  26174085.058   136295314.166       -2654.317          39.000  
C35  23070239.905   120132772.500        1424.171          38.000  
E02                                                                                                                                  24379946.514    95672143.472       -1617.879          34.000  
E04                                                                                                                                  28230671.813   110783222.802        -623.850          31.000  
E05                                                                                                                                  27323433.880   107223035.027        1816.461          33.000  
E25                                                                                                                                  27425144.767   107622147.568       -2506.463          33.000  
G01  22588237.489   118701969.483        2137.528          33.000    22588241.985    88641102.430        1595.402          37.000  
G08  20645306.851   108491812.791         840.668          39.000    20645311.348    81016643.515         626.255          36.000  
G10  22385559.500   117636916.001       -2480.530          40.000    22385563.697    87845752.608       -1853.028          35.000  
G16  23126953.743   121532953.005       -3690.759          42.000  
G21  21218768.752   111505392.907         254.138          38.000  
G22  24583284.946   129186037.5741       2068.874          28.000  
G23  24798909.472   130319166.078       -3648.123          36.000  
G27  20759376.982   109091258.820       -1371.615          37.000    20759385.077    81464276.699       -1025.470          37.000  
G32  24091743.733   126602961.951        1770.411          33.000  
R05  21841549.210   116755597.997       -1880.313          42.000  
R07  23494776.305   125769377.245        4098.730          42.000  
R10  23854848.632   127249284.934       -4423.375          40.000  
R11  21286691.830   113749627.475       -2833.704          35.000  
R12  22127475.068   118201000.773         971.782          36.000  
R20  22381016.445   119681353.312       -2284.165          29.000  
R21  20412929.323   109233708.550         134.603          41.000  
> 2022  5  5 15 46 14.9999852  0 27
C19  23226474.946   120946334.469        2511.838          40.000  
C20  23130094.069   120444454.648         -52.142          38.000  
C26  24780482.729   129038427.520        -889.051          34.000  
C29  21935525.152   114224036.466        -605.959          45.000  
C30  25113703.845   130773623.719       -2310.396          36.000  
C32  26174594.106   136297968.917       -2655.449          36.000  
C35  23069966.495   120131348.390        1423.951          37.000  
E02                                                                                                                                  24380359.029    95673761.889       -1618.496          34.000  
E04                                                                                                                                  28230830.403   110783846.661        -624.011          31.000  
E05                                                                                                                                  27322971.001   107221218.873        1815.952          32.000  
E25                                                                                                                                  27425784.225   107624655.352       -2508.506          34.000  
G01  22587828.871   118699832.099        2136.845          29.000    22587835.767    88639506.775        1595.415          34.000  
G08  20645148.261   108490973.361         837.852          40.000    20645150.959    81016016.479         627.132          34.000  
G10  22386032.272   117639396.847       -2482.184          43.000    22386036.170    87847605.208       -1852.237          38.000  
G16  23127654.058   121536644.159       -3690.177          41.000  
G21  21218720.485   111505140.236         250.944          38.000  
G22  24582892.218   129183968.922        2068.448          36.000  
G23  24799603.792   130322813.826       -3647.520          36.000  
G27  20759638.401   109092631.323       -1373.416          44.000    20759646.196    81465302.137       -1025.935          43.000  
G32  24091406.766   126601191.888        1769.617          38.000  
R05  21841902.665   116757488.365       -1881.358          42.000  
R07  23494010.335   125765277.561        4097.804          40.000  
R10  23855681.156   127253726.290       -4423.704          40.000  
R11  21287226.959   113752486.857       -2835.294          39.000  
R12  22127289.496   118200009.448         968.702          37.000  
R20  22381442.450   119683631.038       -2282.969          27.000  
R21  20412905.939   109233583.143         133.939          39.000  
> 2022  5  5 15 46 15.9999849  0 27
C19  23225901.443   120943352.058        2513.813          43.000  
C20  23130016.123   120444038.373         -52.763          42.000  
C26  24780563.073   129038849.450        -891.317          34.000  
C29  21935550.634   114224172.111        -605.867          39.000  
C30  25114057.300   130775465.708       -2310.600          39.000  
C32  26175016.213   136300158.644       -2657.876          37.000  
C35  23069602.546   120129458.931        1421.216          37.000  
E02                                                                                                                                  24380681.605    95675027.162       -1618.584          34.000  
E04                                                                                                                                  28230899.655   110784118.564        -625.100          26.000  
E05                                                                                                                                  27322417.884   107219048.957        1817.704          35.000  
E25                                                                                                                                  27426332.845   107626808.793       -2504.035          34.000  
G01  22587331.516   118697223.051        2135.844          29.000    22587339.011    88637558.812        1594.142          35.000  
G08  20644898.834   108489664.045         836.559          40.000    20644902.132    81015037.421         624.957          37.000  
G10  22386416.606   117641407.399       -2482.209          42.000    22386419.005    87849105.471       -1853.506          30.000  
G16  23128266.534   121539859.641       -3688.825          41.000  
G21  21218583.780   111504418.143         250.202          37.000  
G22  24582408.952   129181427.153        2069.911          35.000  
G23  24800207.274   130325989.548       -3649.583          35.000  
G27  20759809.283   109093533.920       -1376.597          42.000    20759817.377    81465973.952       -1025.686          34.000  
G32  24090979.862   126598949.416        1769.752          37.000  
R05  21842166.183   116758897.009       -1883.917          41.000  
R07  23493154.428   125760695.202        4100.838          40.000  
R10  23856416.247   127257647.517       -4420.816          41.000  
R11  21287663.157   113754818.366       -2834.662          35.000  
R12  22127018.184   118198559.768         966.366          37.000  
R20  22381780.016   119685436.331       -2283.678          27.000  
R21  20412790.219   109232964.072         130.551          40.000  
> 2022  5  5 15 46 16.9999846  0 27
C19  23225329.739   120940371.250        2512.317          41.000  
C20  23129935.179   120443621.612         -50.163          42.000  
C26  24780643.418   129039272.176        -890.860          34.000  
C29  21935576.416   114224309.254        -605.157          35.000  
C30  25114410.455   130777307.495       -2308.661          42.000  
C32  26175435.023   136302345.265       -2654.411          36.000  
C35  23069238.898   120127566.652        1427.071          37.000  
E02                                                                                                                                  24381003.283    95676292.577       -1617.298          32.000  
E04                                                                                                                                  28230968.907   110784390.905        -623.254          25.000  
E05                                                                                                                                  27321864.467   107216879.015        1817.001          33.000  
E25                                                                                                                                  27426881.465   107628960.795       -2506.519          34.000  
G01  22586834.760   118694614.057        2137.065          35.000    22586841.955    88635610.134        1596.889          36.000  
G08  20644649.107   108488351.890         841.254          40.000    20644652.704    81014059.093         625.845          37.000  
G10  22386796.743   117643415.876       -2480.413          37.000    22386802.139    87850605.865       -1852.874          29.000  
G16  23128878.111   121543077.219       -3690.456          41.000  
G21  21218446.175   111503692.966         254.430          39.000  
G22  24581925.087   129178884.844        2069.900          36.000  
G23  24800810.756   130329165.865       -3647.992          35.000  
G27  20759980.165   109094437.168       -1374.035          32.000    20759988.559    81466647.015       -1025.837          37.000  
G32  24090551.158   126596707.435        1770.273          40.000  
R05  21842428.202   116760297.475       -1880.124          39.000  
R07  23492298.520   125756113.614        4099.299          42.000  
R10  23857151.338   127261568.498       -4422.146          36.000  
R11  21288101.754   113757162.286       -2834.235          35.000  
R12  22126749.870   118197126.569         968.172          35.000  
R20  22382113.385   119687218.884       -2282.823          26.000  
R21  20412673.900   109232341.633         136.684          40.000  
> 2022  5  5 15 46 17.9999846  0 26
C19  23224847.073   120937856.901        2517.741          43.000  
C20  23129945.072   120443672.349         -51.147          43.000  
C26  24780814.299   129040162.008        -889.472          36.000  
C29  21935691.837   114224913.931        -604.917          35.000  
C30  25114853.249   130779615.523       -2306.650          39.000  
C32  26175944.970   136305000.228       -2658.059          38.000  
C35  23068965.188   120126140.933        1421.859          36.000  
E02                                                                                                                                  24381415.197    95677909.726       -1616.915          34.000  
E04                                                                                                                                  28231127.197   110785013.928        -623.970          29.000  
E05                                                                                                                                  27321401.587   107215061.329        1818.564          32.000  
E25                                                                                                                                  27427520.023   107631466.451       -2503.327          36.000  
G01  22586427.642   118692475.990        2138.412          32.000    22586434.537    88634012.573        1597.189          35.000  
G08  20644489.617   108487511.805         836.965          38.000    20644493.215    81013432.544         625.171          38.000  
G10  22387267.417   117645896.794       -2482.837          39.000    22387272.814    87852457.370       -1851.666          33.000  
G16  23129580.525   121546764.942       -3684.060          42.000  
G21  21218397.609   111503439.491         251.246          36.000  
G22  24581531.160   129176814.301        2072.399          31.000  
G27  20760240.684   109095810.192       -1372.045          41.000    20760249.978    81467672.629       -1025.431          36.000  
G32  24090210.894   126594935.818        1772.629          37.000  
R05  21842781.357   116762185.475       -1884.566          41.000  
R07  23491531.051   125752005.482        4105.999          41.000  
R10  23857980.564   127265992.086       -4416.285          40.000  
R11  21288629.988   113759984.983       -2833.789          33.000  
R12  22126571.194   118196172.169         969.349          35.000  
R20  22382542.388   119689513.025       -2281.879          29.000  
R21  20412648.418   109232205.117         132.427          43.000  
> 2022  5  5 15 46 18.9999844  0 27
C19  23224303.849   120935029.787        2511.268          43.000  
C20  23129895.007   120443411.887         -52.741          40.000  
C26  24780924.923   129040739.902        -889.742          35.000  
C29  21935748.497   114225206.813        -605.309          35.000  
C30  25115235.484   130781611.042       -2309.016          32.000  
C32  26176396.158   136307345.524       -2655.294          40.000  
C35  23068633.018   120124404.484        1425.254          38.000  
E02                                                                                                                                  24381766.854    95679290.742       -1617.920          33.000  
E04                                                                                                                                  28231225.829   110785403.915        -624.748          31.000  
E05                                                                                                                                  27320877.550   107213006.369        1817.717          33.000  
E25                                                                                                                                  27428097.423   107633734.813       -2505.541          36.000  
G01  22585960.565   118690022.211        2138.821          34.000    22585967.160    88632180.095        1597.451          36.000  
G08  20644267.171   108486357.821         839.499          40.000    20644272.867    81012571.182         626.932          37.000  
G10  22387679.932   117648063.949       -2481.949          43.000    22387685.328    87854075.514       -1853.889          36.000  
G16  23130222.380   121550136.921       -3691.014          42.000  
G21  21218290.283   111502871.803         252.825          37.000  
G22  24581076.975   129174426.934        2071.379          35.000  
G23  24802137.937   130336145.8471      -3648.018          37.000  
G27  20760440.646   109096866.950       -1372.796          39.000    20760450.539    81468462.600       -1025.619          37.000  
G32  24089815.168   126592848.044        1771.287          28.000  
R05  21843075.154   116763755.242       -1883.470          42.000  
R07  23490704.224   125747579.281        4098.897          40.000  
R10  23858753.129   127270112.247       -4422.344          41.000  
R11  21289100.063   113762496.866       -2835.388          33.000  
R12  22126332.259   118194895.656         968.117          35.000  
R20  22382908.735   119691472.404       -2282.025          32.000  
R21  20412565.975   109231764.400         135.247          42.000  
> 2022  5  5 15 46 19.9999844  0 27
C19  23223822.382   120932519.573        2510.782          43.000  
C20  23129905.500   120443465.437         -54.601          40.000  
C26  24781095.505   129041630.359        -891.701          36.000  
C29  21935864.817   114225812.251        -606.150          43.000  
C30  25115678.278   130783920.940       -2310.781          39.000  
C32  26176907.004   136310001.082       -2657.940          39.000  
C35  23068358.708   120122980.097        1422.444          39.000  
E02                                                                                                                                  24382179.668    95680909.380       -1619.570          37.000  
E04                                                                                                                                  28231385.019   110786028.350        -624.345          33.000  
E05                                                                                                                                  27320414.371   107211189.142        1816.114          32.000  
E25                                                                                                                                  27428736.581   107636241.640       -2507.562          36.000  
G01  22585554.346   118687884.104        2137.568          35.000    22585560.342    88630583.433        1595.959          37.000  
G08  20644108.881   108485519.568         836.999          38.000    20644113.378    81011944.435         625.700          38.000  
G10  22388154.203   117650546.695       -2484.126          42.000    22388157.501    87855929.674       -1854.953          35.000  
G16  23130924.494   121553828.758       -3690.667          42.000  
G21  21218242.916   111502620.519         248.621          38.000  
G22  24580683.047   129172356.174        2070.051          35.000  
G23  24802832.856   130339793.955       -3649.639          38.000  
G27  20760706.862   109098242.275       -1377.961          41.000    20760711.958    81469488.811       -1027.404          39.000  
G32  24089478.201   126591077.779        1769.070          39.000  
R05  21843425.012   116765626.177       -1885.623          43.000  
R07  23489943.650   125743508.346        4098.226          38.000  
R10  23859583.254   127274541.184       -4422.376          42.000  
R11  21289628.597   113765320.439       -2837.472          32.000  
R12  22126153.283   118193939.821         966.829          35.000  
R20  22383326.945   119693708.295       -2282.008          24.000  
R21  20412540.192   109231626.288         132.431          42.000  
> 2022  5  5 15 46 20.9999844  0 28
C19  23223338.517   120930006.475        2512.268          42.000  
C20  23129914.793   120443519.650         -54.461          42.000  
C26  24781266.986   129042522.740        -892.841          33.000  
C29  21935981.736   114226419.000        -607.451          39.000  
C30  25116121.071   130786231.939       -2311.291          37.000  
C32  26177417.251   136312660.911       -2659.034          40.000  
C35  23068085.597   120121559.114        1422.402          38.000  
E02                                                                                                                                  24382592.183    95682529.202       -1619.597          33.000  
E04                                                                                                                                  28231544.209   110786653.895        -626.213          31.000  
E05                                                                                                                                  27319951.491   107209372.053        1817.994          35.000  
E25                                                                                                                                  27429374.839   107638747.293       -2505.057          35.000  
G01  22585147.228   118685747.109        2136.368          33.000    22585153.823    88628988.561        1594.690          35.000  
G08  20643949.691   108484683.892         837.296          39.000    20643953.588    81011320.030         625.419          36.000  
G10  22388627.276   117653032.014       -2485.000          42.000    22388630.574    87857785.390       -1856.379          37.000  
G16  23131625.709   121557516.832       -3689.627          41.000  
G21  21218194.949   111502371.591         250.572          38.000  
G22  24580289.120   129170285.557        2071.082          39.000  
G23  24803529.874   130343444.593       -3649.448          38.000  
G27  20760967.981   109099618.875       -1375.691          39.000    20760973.977    81470515.701       -1025.823          35.000  
G32  24089143.633   126589309.042        1767.707          39.000  
R05  21843776.068   116767502.387       -1887.085          41.000  
R06  20806051.071   111025075.7911       2381.132          29.000  
R07  23489174.383   125739390.316        4101.018          39.000  
R10  23860415.478   127278980.575       -4419.349          42.000  
R11  21290158.630   113768153.296       -2838.299          32.000  
R12  22125974.307   118192983.580         963.259          35.000  
R20  22383752.950   119695986.904       -2283.155          27.000  
R21  20412511.412   109231472.124         132.123          41.000  
> 2022  5  5 15 46 21.9999841  0 27
C19  23222766.513   120927028.285        2508.470          41.000  
C20  23129835.948   120443106.751         -55.677          41.000  
C26  24781347.930   129042947.036        -892.875          32.000  
C29  21936009.317   114226557.892        -607.154          42.000  
C30  25116476.325   130788075.108       -2310.708          39.000  
C32  26177837.260   136314850.229       -2657.523          40.000  
C35  23067722.248   120119666.697        1422.741          38.000  
E02                                                                                                                                  24382915.059    95683796.572       -1621.377          32.000  
E04                                                                                                                                  28231613.461   110786927.319        -626.239          30.000  
E05                                                                                                                                  27319398.974   107207202.340        1815.918          34.000  
E25                                                                                                                                  27429923.159   107640900.424       -2507.601          36.000  
G01  22584651.371   118683138.427        2134.902          35.000    22584657.367    88627040.329        1594.962          35.000  
G08  20643701.463   108483373.489         836.539          39.000    20643705.360    81010341.835         624.697          39.000  
G10  22389008.612   117655043.622       -2484.453          42.000    22389013.109    87859287.769       -1855.090          35.000  
G16  23132239.084   121560736.285       -3693.103          41.000  
G21  21218057.345   111501647.720         249.792          39.000  
G22  24579804.655   129167742.701        2069.143          37.000  
G23  24804136.654   130346620.782       -3649.060          39.000  
G27  20761140.062   109100521.937       -1375.904          42.000    20761145.158    81471189.420       -1027.755          36.000  
G32  24088719.127   126587069.177        1767.400          33.000  
R05  21844038.687   116768905.774       -1887.157          42.000  
R06  20805511.444   111022215.821        2379.011          30.000  
R07  23488316.677   125734798.873        4097.657          40.000  
R10  23861153.267   127282916.281       -4423.797          40.000  
R11  21290599.325   113770508.410       -2839.378          33.000  
R12  22125705.393   118191547.681         963.119          38.000  
R21  20412395.992   109230854.563         132.643          41.000  
> 2022  5  5 15 46 22.9999841  0 28
C19  23222285.047   120924517.476        2510.465          42.000  
C20  23129847.340   120443160.940         -55.309          41.000  
C26  24781519.411   129043841.483        -895.358          31.000  
C29  21936126.835   114227164.498        -605.988          40.000  
C30  25116921.517   130790382.926       -2308.998          40.000  
C32  26178347.207   136317507.375       -2658.528          40.000  
C35  23067449.737   120118246.073        1421.071          40.000  
E02                                                                                                                                  24383327.873    95685418.304       -1622.757          32.000  
E04                                                                                                                                  28231772.950   110787552.596        -623.808          29.000  
E05                                                                                                                                  27318936.094   107205385.657        1817.213          36.000  
E25                                                                                                                                  27430562.317   107643407.883       -2507.211          35.000  
G01  22584244.253   118681004.789        2132.427          35.000    22584251.748    88625446.855        1592.215          35.000  
G08  20643542.273   108482538.476         835.190          40.000    20643546.170    81009718.267         623.478          36.000  
G10  22389482.284   117657527.422       -2484.706          40.000    22389485.582    87861143.016       -1855.629          34.000  
G16  23132941.798   121564427.812       -3691.544          41.000  
G21  21218009.678   111501400.197         248.082          38.000  
G22  24579411.328   129165671.409        2069.957          39.000  
G23  24804830.073   130350269.244       -3649.364          38.000  
G27  20761400.581   109101897.600       -1376.313          40.000    20761406.577    81472217.442       -1027.596          32.000  
G32  24088381.860   126585298.895        1768.929          41.000  
R05  21844393.041   116770800.714       -1887.523          40.000  
R06  20805066.552   111019837.677        2378.721          30.000  
R07  23487550.107   125730695.231        4099.219          40.000  
R10  23861982.493   127287338.883       -4423.959          41.000  
R11  21291130.257   113773345.199       -2841.860          31.000  
R12  22125526.417   118190590.932         960.086          38.000  
R20  22384524.316   119700111.2841      -2282.387          24.000  
R21  20412366.613   109230697.138         130.607          40.000  
> 2022  5  5 15 46 23.9999839  0 28
C19  23221744.221   120921697.011        2507.642          42.000  
C20  23129795.476   120442905.087         -58.233          38.000  
C26  24781630.934   129044424.775        -895.834          30.000  
C29  21936182.597   114227458.057        -607.125          40.000  
C30  25117305.551   130792383.008       -2313.375          41.000  
C32  26178799.294   136319854.177       -2658.936          38.000  
C35  23067117.567   120116511.140        1422.663          41.000  
E02                                                                                                                                  24383681.329    95686806.354       -1623.279          31.000  
E04                                                                                                                                  28231871.582   110787941.992        -624.953          25.000  
E05                                                                                                                                  27318413.556   107203334.718        1814.399          37.000  
E25                                                                                                                                  27431141.816   107645680.943       -2509.104          37.000  
G01  22583777.776   118678556.945        2132.560          34.000    22583786.170    88623618.522        1593.518          34.000  
G08  20643321.326   108481386.988         835.640          39.000    20643327.322    81008858.981         623.999          38.000  
G10  22389897.497   117659697.430       -2486.235          41.000    22389898.995    87862763.412       -1856.245          36.000  
G16  23133586.052   121567806.309       -3694.989          41.000  
G21  21217902.352   111500835.283         249.425          39.000  
G22  24578960.140   129163289.410        2066.311          40.000  
G23  24805462.036   130353604.461       -3649.997          37.000  
G27  20761604.141   109102959.782       -1378.969          41.000    20761607.738    81473010.569       -1029.249          38.000  
G32  24087985.834   126583217.578        1765.293          40.000  
R05  21844690.735   116772391.664       -1889.436          41.000  
R06  20804558.704   111017140.046        2376.412          30.000  
R07  23486724.779   125726277.162        4096.280          44.000  
R10  23862744.566   127291403.794       -4423.799          38.000  
R11  21291605.728   113775885.907       -2842.349          34.000  
R12  22125277.889   118189263.684         962.273          40.000  
R20  22384895.160   119702094.611       -2283.676          26.000  
R21  20412283.270   109230251.414         131.973          40.000  
> 2022  5  5 15 46 24.9999836  0 27
C19  23221172.217   120918719.416        2510.520          42.000  
C20  23129719.029   120442494.130         -56.930          39.000  
C26  24781713.976   129044853.358        -897.876          30.000  
C29  21936209.878   114227597.653        -608.792          42.000  
C30  25117659.606   130794225.798       -2310.748          42.000  
C32  26179221.402   136322045.915       -2661.184          37.000  
C35  23066754.218   120114622.620        1419.051          40.000  
E02                                                                                                                                  24384005.404    95688077.620       -1624.300          30.000  
E04                                                                                                                                  28231942.933   110788217.089        -628.892          28.000  
E05                                                                                                                                  27317861.038   107201167.009        1816.330          38.000  
E25                                                                                                                                  27431691.335   107647836.895       -2507.780          36.000  
G01  22583281.320   118675952.432        2131.202          34.000    22583290.313    88621673.416        1591.889          33.000  
G08  20643075.196   108480081.214         830.867          38.000    20643078.494    81007883.431         621.722          34.000  
G10  22390279.432   117661712.095       -2487.755          38.000    22390282.430    87864267.388       -1857.564          35.000  
G16  23134198.528   121571026.751       -3691.297          41.000  
G21  21217763.848   111500115.778         245.578          39.000  
G22  24578474.476   129160747.310        2070.848          40.000  
G23  24806065.518   130356781.979       -3650.630          33.000  
G27  20761777.421   109103865.617       -1378.099          43.000    20761780.419    81473686.630       -1028.819          36.000  
G32  24087558.330   126580977.289        1769.047          43.000  
R05  21844953.953   116773798.957       -1890.863          41.000  
R06  20804021.476   111014283.628        2376.720          30.000  
R07  23485870.370   125721703.877        4100.643          43.000  
R10  23863488.950   127295374.977       -4422.405          37.000  
R11  21292051.819   113778269.493       -2843.863          35.000  
R12  22125002.979   118187794.800         955.610          42.000  
R21  20412172.947   109229661.446         128.700          41.000  
> 2022  5  5 15 46 25.9999836  0 28
C19  23220690.451   120916211.439        2505.576          41.000  
C20  23129731.020   120442553.325         -60.621          41.000  
C26  24781886.657   129045751.614        -897.907          31.000  
C29  21936328.596   114228205.926        -608.806          39.000  
C30  25118103.899   130796539.006       -2314.670          40.000  
C32  26179730.150   136324707.274       -2660.826          40.000  
C35  23066481.707   120113201.498        1422.700          39.000  
E02                                                                                                                                  24384418.818    95689701.617       -1623.169          31.000  
E04                                                                                                                                  28232103.322   110788846.728        -629.598          28.000  
E05                                                                                                                                  27317397.559   107199351.238        1815.030          34.000  
E25                                                                                                                                  27432330.193   107650344.429       -2508.209          35.000  
G01  22582875.401   118673820.724        2132.109          33.000    22582884.694    88620081.048        1592.996          35.000  
G08  20642916.906   108479248.431         833.569          36.000    20642919.604    81007261.159         622.785          39.000  
G10  22390751.605   117664199.936       -2487.719          44.000    22390755.802    87866125.305       -1858.605          34.000  
G16  23134903.639   121574720.286       -3695.757          39.000  
G21  21217716.181   111499869.067         248.283          39.000  
G22  24578079.949   129158680.358        2064.642          39.000  
G23  24806759.238   130360433.011       -3651.549          38.000  
G27  20762039.439   109105244.776       -1379.938          41.000    20762042.737    81474715.780       -1029.822          34.000  
G32  24087223.462   126579212.052        1763.320          41.000  
R05  21845306.809   116775685.400       -1891.840          38.000  
R06  20803578.083   111011907.697        2374.140          30.000  
R07  23485107.698   125717620.794        4095.200          42.000  
R10  23864313.979   127299776.130       -4423.671          36.000  
R11  21292587.848   113781133.729       -2844.543          33.000  
R12  22124827.601   118186858.268         960.547          37.000  
R20  22385656.932   119706168.1851      -2285.476          24.000  
R21  20412153.160   109229555.361         130.973          38.000  
> 2022  5  5 15 46 26.9999834  0 28
C19  23220149.625   120913391.539        2511.256          42.000  
C20  23129681.555   120442299.222         -55.767          39.000  
C26  24781999.679   129046336.089        -897.086          32.000  
C29  21936386.156   114228501.878        -606.044          40.000  
C30  25118487.333   130798537.985       -2306.512          40.000  
C32  26180180.738   136327053.485       -2656.762          39.000  
C35  23066148.338   120111466.093        1421.589          39.000  
E02                                                                                                                                  24384771.674    95691088.818       -1622.734          30.000  
E04                                                                                                                                  28232203.452   110789240.229        -628.222          27.000  
E05                                                                                                                                  27316875.021   107197301.246        1817.102          35.000  
E25                                                                                                                                  27432909.092   107652617.257       -2506.813          36.000  
G01  22582408.324   118671373.177        2132.861          35.000    22582418.817    88618252.683        1593.037          35.000  
G08  20642698.957   108478098.601         835.471          38.000    20642701.055    81006402.165         623.450          38.000  
G10  22391163.220   117666370.649       -2484.306          38.000    22391169.516    87867747.868       -1857.092          35.000  
G16  23135543.097   121578098.772       -3690.553          39.000  
G21  21217610.654   111499305.465         246.897          38.000  
G22  24577627.562   129156297.408        2073.248          40.000  
G23  24807396.597   130363768.555       -3647.447          37.000  
G27  20762242.099   109106307.924       -1375.508          41.000    20762245.696    81475509.885       -1028.122          36.000  
G32  24086827.436   126577130.301        1771.073          43.000  
R05  21845597.008   116777236.263       -1888.039          42.000  
R06  20803073.532   111009213.274        2376.125          30.000  
R07  23484282.969   125713205.784        4101.145          40.000  
R10  23865078.750   127303855.217       -4423.686          41.000  
R11  21293056.724   113783639.847       -2844.506          29.000  
R12  22124585.668   118185565.470         957.665          38.000  
R20  22386027.476   119708149.701       -2284.028          25.000  
R21  20412073.715   109229129.755         131.130          43.000  
> 2022  5  5 15 46 27.9999834  0 28
C19  23219666.359   120910879.884        2509.551          40.000  
C20  23129691.748   120442353.807         -57.079          41.000  
C26  24782172.659   129047233.236        -896.705          30.000  
C29  21936501.276   114229106.324        -605.565          39.000  
C30  25118930.726   130800844.613       -2310.652          41.000  
C32  26180690.685   136329709.909       -2658.437          39.000  
C35  23065874.627   120110043.241        1425.160          40.000  
E02                                                                                                                                  24385184.188    95692710.564       -1621.290          28.000  
E04                                                                                                                                  28232362.642   110789867.802        -629.431          25.000  
E05                                                                                                                                  27316411.242   107195483.087        1817.997          36.000  
E25                                                                                                                                  27433547.950   107655123.225       -2505.886          35.000  
G01  22582002.105   118669240.826        2133.517          34.000    22582012.898    88616659.845        1593.707          32.000  
G08  20642540.966   108477262.584         836.643          40.000    20642541.866    81005778.152         623.961          36.000  
G10  22391638.991   117668854.141       -2484.912          39.000    22391641.689    87869603.094       -1855.303          32.000  
G16  23136245.511   121581788.949       -3691.538          39.000  
G21  21217565.685   111499056.408         250.977          39.000  
G22  24577232.736   129154224.049        2069.594          40.000  
G23  24808091.815   130367415.089       -3648.710          36.000  
G27  20762502.918   109107682.858       -1376.713          40.000    20762507.715    81476536.760       -1026.819          34.000  
G32  24086489.570   126575359.254        1767.113          41.000  
R05  21845949.564   116779121.098       -1888.499          39.000  
R06  20802630.139   111006836.166        2377.317          29.000  
R07  23483511.903   125709078.386        4100.788          41.000  
R10  23865904.978   127308262.837       -4421.992          37.000  
R11  21293590.354   113786491.132       -2842.974          35.000  
R12  22124406.392   118184608.313         961.136          39.000  
R20  22386456.479   119710443.383       -2280.723          26.000  
R21  20412045.235   109228978.058         134.180          40.000  
> 2022  5  5 15 46 28.9999831  0 28
C19  23219094.655   120907903.312        2507.836          42.000  
C20  23129613.502   120441944.213         -58.977          41.000  
C26  24782254.802   129047661.019        -895.926          30.000  
C29  21936528.857   114229245.360        -607.829          42.000  
C30  25119281.483   130802688.284       -2312.088          36.000  
C32  26181113.392   136331901.400       -2660.306          40.000  
C35  23065511.279   120108150.138        1422.785          40.000  
E02                                                                                                                                  24385507.664    95693978.429       -1621.621          32.000  
E04                                                                                                                                  28232433.693   110790143.671        -628.068          25.000  
E05                                                                                                                                  27315857.825   107193312.215        1817.359          35.000  
E25                                                                                                                                  27434096.570   107657276.620       -2506.754          36.000  
G01                                                                  22581516.441    88614712.862        1594.917          34.000  
G08  20642287.941   108475954.737         834.072          39.000    20642293.338    81004801.058         623.666          37.000  
G10  22392020.627   117670867.897       -2487.226          40.000    22392024.824    87871106.443       -1856.865          38.000  
G16  23136857.687   121585008.626       -3693.312          39.000  
G21  21217427.181   111498333.464         248.864          39.000  
G22  24576748.271   129151683.734        2068.397          40.000  
G23  24808698.895   130370591.994       -3650.125          37.000  
G27  20762674.400   109108588.375       -1378.850          42.000    20762680.096    81477211.860       -1029.030          39.000  
G32  24086064.165   126573120.793        1766.243          42.000  
R05  21846213.981   116780534.425       -1891.920          42.000  
R06  20802095.309   111003979.559        2376.147          31.000  
R07  23482656.595   125704500.243        4099.454          40.000  
R10  23866651.461   127312245.193       -4421.810          37.000  
R11  21294038.244   113788884.999       -2842.270          34.000  
R12  22124137.179   118183170.264         958.289          40.000  
R20  22386803.638   119712299.884       -2282.431          22.000  
R21  20411928.616   109228353.448         132.642          41.000  
> 2022  5  5 15 46 29.9999828  0 26
C19  23218522.651   120904926.352        2507.640          43.000  
C20  23129534.956   120441533.943         -59.404          41.000  
C26  24782336.645   129048089.627        -898.045          31.000  
C29  21936554.639   114229384.645        -606.446          41.000  
C30  25119637.037   130804529.516       -2310.048          38.000  
C32  26181533.102   136334092.677       -2660.243          40.000  
C35  23065149.429   120106261.544        1421.019          41.000  
E02                                                                                                                                  24385831.140    95695247.409       -1622.215          30.000  
E04                                                                                                                                  28232502.945   110790417.837        -625.672          24.000  
E05                                                                                                                                  27315304.708   107191141.241        1817.673          34.000  
E25                                                                                                                                  27434645.490   107659430.039       -2507.084          36.000  
G01  22581011.291   118664028.1831       2132.275          35.000    22581020.585    88612767.339        1591.567          33.000  
G08  20642040.013   108474649.157         832.716          39.000    20642044.810    81003825.453         622.266          37.000  
G10  22392403.162   117672882.146       -2487.345          40.000    22392407.359    87872610.660       -1857.748          32.000  
G16  23137470.762   121588228.612       -3693.892          41.000  
G21  21217288.976   111497614.764         245.777          39.000  
G22  24576264.106   129149139.940        2069.324          39.000  
G23  24809300.579   130373768.900       -3650.352          37.000  
G27  20762845.881   109109493.974       -1378.661          42.000    20762851.877    81477887.576       -1028.941          32.000  
G32  24085636.361   126570879.632        1766.967          42.000  
R05  21846479.297   116781952.872       -1893.168          42.000  
R06  20801560.779   111001124.273        2375.175          30.000  
R07  23481804.885   125699940.317        4099.363          40.000  
R10  23867402.741   127316252.513       -4422.633          38.000  
R12  22123867.365   118181728.590         955.366          40.000  
R21  20411812.896   109227734.005         130.224          41.000  
> 2022  5  5 15 46 30.9999828  0 27
C19  23218041.185   120902420.471        2505.045          43.000  
C20  23129545.449   120441595.485         -62.302          40.000  
C26  24782510.225   129048987.590        -898.012          32.000  
C29  21936670.059   114229992.052        -608.224          41.000  
C30  25120083.428   130806842.155       -2313.923          38.000  
C32  26182043.948   136336754.365       -2662.980          39.000  
C35  23064875.119   120104838.939        1422.243          40.000  
E02                                                                                                                                  24386245.753    95696870.608       -1623.807          32.000  
E05                                                                                                                                  27314842.428   107189325.099        1814.549          35.000  
E25                                                                                                                                  27435284.947   107661937.831       -2509.007          35.000  
G01  22580604.473   118661895.628        2132.723          35.000    22580614.666    88611175.147        1592.340          35.000  
G08  20641881.123   108473815.412         833.879          39.000    20641885.920    81003203.611         622.063          35.000  
G10  22392876.534   117675370.522       -2489.147          41.000    22392881.031    87874468.992       -1859.209          38.000  
G16  23138176.474   121591924.136       -3696.069          41.000  
G21  21217240.710   111497367.244         247.252          39.000  
G22  24575872.278   129147074.042        2064.861          40.000  
G23  24809994.898   130377420.361       -3651.382          37.000  
G27  20763109.698   109110874.627       -1381.517          41.000  
G32  24085302.092   126569115.909        1762.371          42.000  
R05  21846838.748   116783874.464       -1895.726          41.000  
R06  20801114.388   110998751.556        2370.022          31.000  
R07  23481044.011   125695867.744        4095.867          41.000  
R10  23868222.973   127320627.837       -4424.082          37.000  
R11  21295011.370   113794084.3001      -2845.605          34.000  
R12  22123688.089   118180770.802         956.257          41.000  
R20  22387557.916   119716333.4971      -2285.307          26.000  
R21  20411790.412   109227614.056         131.019          39.000  
> 2022  5  5 15 46 31.9999826  0 27
C19  23217500.359   120899602.009        2507.492          43.000  
C20  23129497.482   120441344.807         -60.389          40.000  
C26  24782622.947   129049573.638        -899.471          34.000  
C29  21936727.320   114230289.235        -609.561          43.000  
C30  25120468.062   130808842.798       -2310.317          37.000  
C32  26182495.735   136339104.610       -2662.469          39.000  
C35  23064542.350   120103106.756        1417.884          39.000  
E02                                                                                                                                  24386600.108    95698259.482       -1624.416          32.000  
E05                                                                                                                                  27314320.190   107187274.560        1816.581          34.000  
E25                                                                                                                                  27435864.446   107664211.394       -2508.485          34.000  
G01  22580139.195   118659447.917        2131.785          35.000    22580149.088    88609348.431        1590.518          34.000  
G08  20641665.272   108472668.629         830.188          38.000    20641667.671    81002346.751         620.749          36.000  
G10  22393291.147   117677545.327       -2489.628          41.000    22393295.344    87876093.106       -1859.305          36.000  
G16  23138818.629   121595304.241       -3693.965          41.000  
G21  21217133.684   111496806.257         244.319          39.000  
G22  24575419.591   129144691.325        2070.779          39.000  
G23  24810626.860   130380756.395       -3651.671          35.000  
G27  20763312.958   109111940.338       -1379.351          44.000  
G32  24084907.565   126567036.475        1766.975          43.000  
R05  21847130.446   116785433.081       -1895.988          41.000  
R06  20800614.035   110996061.585        2370.783          30.000  
R07  23480210.888   125691408.197        4099.097          41.000  
R10  23868984.446   127324689.682       -4422.712          37.000  
R11  21295483.544   113796607.817       -2848.170          34.000  
R12  22123454.551   118179524.040         950.263          42.000  
R20  22387923.363   119718288.231       -2284.848          26.000  
R21  20411702.273   109227142.720         127.828          40.000  
> 2022  5  5 15 46 32.9999823  0 27
C19  23216929.254   120896627.774        2504.465          39.000  
C20  23129419.836   120440938.484         -63.474          41.000  
C26  24782705.690   129050005.654        -900.281          36.000  
C29  21936753.402   114230430.539        -609.855          39.000  
C30  25120820.918   130810686.776       -2314.261          41.000  
C32  26182916.644   136341299.153       -2663.150          39.000  
C35  23064180.200   120101218.228        1421.951          42.000  
E02                                                                                                                                  24386924.184    95699531.816       -1625.466          32.000  
E05                                                                                                                                  27313767.672   107185105.369        1815.583          35.000  
E25                                                                                                                                  27436413.666   107666366.351       -2508.226          33.000  
G01  22579643.638   118656844.422        2130.612          33.000    22579653.831    88607405.292        1590.228          32.000  
G08  20641413.747   108471363.740         832.853          40.000    20641420.042    81001373.073         621.141          37.000  
G10  22393674.582   117679562.827       -2490.443          40.000    22393679.378    87877599.059       -1859.565          38.000  
G16  23139432.304   121598526.903       -3695.881          38.000  
G21  21216997.278   111496087.895         246.706          40.000  
G22  24574934.527   129142150.517        2066.372          42.000  
G23  24811235.739   130383935.485       -3651.714          36.000  
G27  20763486.837   109112848.575       -1381.639          41.000  
G32  24084480.061   126564799.297        1762.976          43.000  
R05  21847391.566   116786828.974       -1897.465          43.000  
R06  20800085.201   110993210.961        2370.351          31.000  
R07  23479355.281   125686827.447        4097.019          40.000  
R10  23869721.636   127328622.681       -4422.945          27.000  
R11  21295928.436   113798985.022       -2848.862          36.000  
R12  22123187.436   118178096.583         953.434          43.000  
R20  22388255.833   119720065.275       -2285.409          25.000  
R21  20411587.752   109226529.731         130.110          42.000  
> 2022  5  5 15 46 33.9999823  0 27
C19  23216446.588   120894123.587        2504.548          40.000  
C20  23129431.228   120441002.168         -63.634          42.000  
C26  24782878.071   129050906.267        -900.446          29.000  
C29  21936872.419   114231040.449        -610.340          44.000  
C30  25121264.610   130813000.374       -2312.859          38.000  
C32  26183428.989   136343962.092       -2663.053          40.000  
C35  23063905.890   120099796.475        1421.143          41.000  
E02                                                                                                                                  24387337.897    95701157.054       -1624.406          30.000  
E05                                                                                                                                  27313305.392   107183290.455        1814.267          36.000  
E25                                                                                                                                  27437053.123   107668875.323       -2509.483          37.000  
G01  22579238.319   118654713.760        2130.680          32.000    22579247.912    88605813.725        1592.908          30.000  
G08  20641256.955   108470531.831         831.293          37.000    20641261.152    81000751.929         620.556          35.000  
G10  22394150.053   117682053.331       -2490.896          43.000    22394153.050    87879458.516       -1859.517          38.000  
G16  23140133.519   121602223.223       -3695.956          38.000  
G21  21216952.010   111495841.561         246.042          41.000  
G22  24574542.698   129140084.651        2066.700          39.000  
G23  24811929.758   130387586.808       -3652.193          37.000  
G27  20763750.355   109114230.527       -1382.472          45.000  
G32  24084143.994   126563036.249        1763.262          42.000  
R05  21847747.719   116788732.596       -1897.554          42.000  
R06  20799642.407   110990840.571        2369.733          31.000  
R07  23478590.210   125682732.097        4096.079          41.000  
R10  23870549.363   127333037.956       -4423.501          34.000  
R11  21296460.267   113801827.529       -2848.606          37.000  
R12  22123004.263   118177118.279         953.335          41.000  
R20  22388687.534   119722373.774       -2285.665          29.000  
R21  20411557.773   109226369.025         130.272          40.000  
> 2022  5  5 15 46 34.9999821  0 27
C19  23215905.463   120891304.555        2508.339          41.000  
C20  23129382.961   120440752.155         -61.987          43.000  
C26  24782991.992   129051495.147        -902.604          33.000  
C29  21936929.680   114231339.044        -609.596          40.000  
C30  25121647.445   130814999.256       -2310.899          41.000  
C32  26183880.177   136346313.131       -2663.843          40.000  
C35  23063573.720   120098065.153        1418.927          41.000  
E02                                                                                                                                  24387691.053    95702545.828       -1623.929          31.000  
E05                                                                                                                                  27312782.554   107181239.413        1817.732          35.000  
E25                                                                                                                                  27437632.023   107671148.793       -2507.737          32.000  
G01  22578772.741   118652268.440        2129.454          32.000    22578782.034    88603986.357        1591.519          31.000  
G08  20641037.507   108469386.678         830.141          39.000    20641043.203    80999896.422         619.733          36.000  
G10  22394562.867   117684228.781       -2490.365          42.000    22394565.865    87881082.300       -1858.719          34.000  
G16  23140778.372   121605602.699       -3693.517          38.000  
G21  21216844.084   111495282.499         244.267          40.000  
G22  24574087.613   129137699.348        2070.850          40.000  
G23  24812564.119   130390923.671       -3652.445          37.000  
G27  20763951.515   109115297.137       -1380.443          41.000  
G32  24083748.568   126560955.469        1765.996          43.000  
R05  21848040.316   116790296.807       -1898.693          43.000  
R06  20799141.454   110988150.856        2370.560          31.000  
R07  23477764.582   125678312.796        4100.595          39.000  
R10  23871319.529   127337146.138       -4422.101          30.000  
R11  21296936.638   113804372.804       -2849.774          36.000  
R12  22122767.127   118175852.111         948.114          42.000  
R20  22389062.575   119724379.697       -2284.723          22.000  
R21  20411482.225   109225965.243         127.598          40.000  
> 2022  5  5 15 46 35.9999821  0 27
C19  23215425.196   120888799.699        2502.420          40.000  
C20  23129394.953   120440816.202         -65.297          42.000  
C26  24783165.871   129052397.345        -901.928          35.000  
C29  21937048.697   114231949.194        -610.663          42.000  
C30  25122091.738   130817312.804       -2313.684          40.000  
C32  26184390.724   136348976.723       -2663.377          40.000  
C35  23063299.710   120096644.303        1421.549          41.000  
E02                                                                                                                                  24388105.066    95704170.278       -1626.113          34.000  
E05                                                                                                                                  27312319.675   107179423.013        1814.937          36.000  
E25                                                                                                                                  27438270.281   107673656.292       -2508.592          29.000  
G01  22578367.421   118650138.774        2129.568          36.000    22578376.715    88602395.193        1590.705          33.000  
G08  20640878.917   108468555.729         829.994          37.000    20640885.213    80999276.356         620.167          36.000  
G10  22395038.937   117686720.295       -2491.500          41.000    22395040.136    87882941.933       -1860.351          37.000  
G16  23141479.287   121609298.858       -3697.596          36.000  
G21  21216796.717   111495036.698         245.818          41.000  
G22  24573694.285   129135632.485        2065.325          41.000  
G23  24813259.638   130394576.112       -3652.135          36.000  
G27  20764215.932   109116679.098       -1383.071          43.000  
G32  24083413.999   126559192.806        1761.465          43.000  
R05  21848399.768   116792219.072       -1899.279          40.000  
R06  20798697.461   110985781.291        2367.815          30.000  
R07  23477004.608   125674244.243        4096.015          38.000  
R10  23872146.057   127341554.399       -4422.870          29.000  
R11  21297462.773   113807183.838       -2850.225          37.000  
R12  22122587.252   118174891.241         951.823          41.000  
R20  22389489.779   119726664.709       -2285.598          25.000  
R21  20411458.541   109225838.117         130.032          41.000  
> 2022  5  5 15 46 36.9999818  0 25
C19  23214855.290   120885828.597        2505.523          43.000  
C20  23129318.806   120440413.394         -65.083          43.000  
C26  24783249.813   129052831.114        -903.274          30.000  
C29  21937073.280   114232092.398        -612.203          38.000  
C30  25122446.092   130819157.960       -2311.971          39.000  
C32  26184812.831   136351172.309       -2664.410          40.000  
C35  23062938.160   120094755.236        1418.014          41.000  
E02                                                                                                                                  24388430.041    95705444.479       -1627.436          31.000  
E05                                                                                                                                  27311767.457   107177255.495        1815.231          36.000  
E25                                                                                                                                  27438819.201   107675812.570       -2508.886          31.000  
G01  22577871.865   118647536.565        2128.910          34.000    22577881.458    88600451.574        1590.153          30.000  
G08  20640633.387   108467252.846         827.765          38.000    20640637.584    80998303.031         620.211          38.000  
G10  22395423.271   117688739.469       -2492.442          41.000    22395424.770    87884450.164       -1862.127          33.000  
G16  23142092.363   121612523.903       -3695.171          41.000  
G21  21216662.110   111494319.158         242.781          40.000  
G22  24573211.320   129133093.988        2069.060          36.000  
G23  24813865.219   130397755.894       -3653.269          38.000  
G27  20764388.013   109117590.185       -1383.599          42.000  
G32  24082987.994   126556958.040        1764.586          41.000    24082996.688    94506873.5811       1316.526          30.000  
R05  21848669.581   116793661.085       -1901.963          43.000  
R06  20798164.430   110982933.531        2367.684          31.000  
R07  23476146.302   125669649.552        4098.819          41.000  
R11  21297907.366   113809560.285       -2852.302          36.000  
R12  22122318.338   118173454.699         947.437          41.000  
R21  20411343.421   109225222.564         126.723          41.000  
> 2022  5  5 15 46 37.9999816  0 27
C19  23214313.265   120883010.043        2504.020          41.000  
C20  23129270.539   120440165.220         -65.983          42.000  
C26  24783363.435   129053423.544        -904.994          34.000  
C29  21937130.241   114232391.945        -611.408          42.000  
C30  25122829.827   130821157.301       -2314.769          41.000  
C32  26185265.818   136353526.057       -2666.961          37.000  
C35  23062607.189   120093025.681        1420.232          41.000  
E02                                                                                                                                  24388784.696    95706835.754       -1624.768          31.000  
E05                                                                                                                                  27311244.319   107175203.172        1816.745          35.000  
E25                                                                                                                                  27439398.100   107678084.331       -2506.942          31.000  
G01  22577408.385   118645093.343        2128.144          33.000    22577417.079    88598627.049        1588.888          31.000  
G08  20640415.438   108466109.300         830.190          40.000    20640419.635    80997448.319         619.334          35.000  
G10  22395838.184   117690917.026       -2493.555          42.000    22395839.383    87886076.795       -1861.772          35.000  
G16  23142736.017   121615902.945       -3695.847          40.000  
G21  21216556.284   111493761.812         244.646          39.000  
G22  24572755.335   129130708.137        2067.232          39.000  
G23  24814498.680   130401094.062       -3653.611          35.000  
G27  20764591.872   109118657.550       -1383.301          40.000  
G32  24082590.769   126554877.495        1761.345          40.000    24082601.862    94505320.776        1316.111          33.000  
R05  21848962.478   116795226.205       -1901.517          34.000  
R06  20797657.182   110980244.989        2368.865          31.000  
R07  23475317.076   125665211.293        4097.974          42.000  
R10  23873655.812   127349608.2931      -4422.600          32.000  
R11  21298382.836   113812101.115       -2849.896          36.000  
R12  22122080.302   118172182.253         947.532          41.000  
R20  22390199.687   119730460.5201      -2288.752          25.000  
R21  20411262.477   109224789.302         128.074          40.000  
> 2022  5  5 15 46 38.9999816  0 27
C19  23213833.298   120880507.954        2500.641          42.000  
C20  23129283.130   120440232.338         -67.896          39.000  
C26  24783537.914   129054327.393        -903.378          33.000  
C29  21937248.359   114233003.443        -611.783          42.000  
C30  25123275.918   130823473.353       -2316.281          42.000  
C32  26185775.765   136356191.249       -2663.841          39.000  
C35  23062334.978   120091604.711        1420.978          42.000  
E02                                                                                                                                  24389199.608    95708461.098       -1625.842          31.000  
E05                                                                                                                                  27310782.039   107173387.969        1813.431          38.000  
E25                                                                                                                                  27440037.857   107680592.294       -2509.169          34.000  
G01  22577005.464   118642964.705        2128.938          31.000    22577012.360    88597036.925        1590.642          32.000  
G08  20640258.646   108465278.970         830.156          40.000    20640262.244    80996828.965         619.425          40.000  
G10  22396310.057   117693410.454       -2491.596          39.000    22396314.554    87887938.758       -1862.272          37.000  
G16  23143440.530   121619601.021       -3699.317          40.000  
G21  21216509.516   111493516.849         244.855          40.000  
G22  24572364.106   129128643.770        2064.040          38.000  
G23  24815192.100   130404747.545       -3653.285          38.000  
G27  20764855.989   109120042.308       -1385.518          41.000  
G32  24082256.201   126553117.511        1759.297          43.000    24082269.392    94504006.027        1312.341          22.000  
R05  21849315.334   116797112.803       -1901.739          41.000  
R06  20797215.287   110977877.596        2365.441          30.000  
R07  23474552.605   125661118.557        4094.319          43.000  
R10  23874485.338   127354033.286       -4423.987          35.000  
R11  21298917.966   113814960.446       -2852.406          36.000  
R12  22121905.823   118171250.674         949.528          41.000  
R20  22390629.889   119732760.928       -2288.660          23.000  
R21  20411236.095   109224648.294         129.368          41.000  
> 2022  5  5 15 46 39.9999813  0 27
C19  23213264.292   120877537.886        2503.161          42.000  
C20  23129207.283   120439831.678         -66.719          42.000  
C26  24783621.256   129054762.265        -903.426          32.000  
C29  21937275.340   114233147.108        -612.352          39.000  
C30  25123630.872   130825320.186       -2312.912          42.000  
C32  26186197.273   136358387.495       -2664.487          38.000  
C35  23061970.430   120089715.936        1418.265          42.000  
E02                                                                                                                                  24389524.284    95709734.233       -1626.238          32.000  
E05                                                                                                                                  27310229.821   107171221.394        1813.523          36.000  
E25                                                                                                                                  27440587.976   107682748.772       -2510.919          31.000  
G01  22576510.207   118640362.988        2129.009          32.000    22576517.402    88595093.777        1589.729          31.000  
G08  20640010.418   108463977.112         827.504          42.000    20640014.615    80995856.584         619.329          37.000  
G10  22396696.789   117695430.569       -2493.194          36.000    22396698.888    87889447.867       -1861.808          31.000  
G16  23144053.605   121622826.995       -3697.623          40.000  
G21  21216372.511   111492800.507         242.119          40.000  
G22  24571881.440   129126107.011        2066.970          36.000  
G23  24815795.582   130407928.009       -3652.969          36.000  
G27  20765028.670   109120955.170       -1385.128          42.000  
G32  24081833.494   126550884.517        1762.533          43.000    24081843.986    94502340.190        1314.184          26.000  
R05  21849578.552   116798520.071       -1902.035          42.000  
R06  20796683.456   110975032.526        2364.893          31.000  
R07  23473699.396   125656550.836        4096.983          43.000  
R10  23875228.223   127357995.707       -4424.207          32.000  
R11  21299364.956   113817348.529       -2854.706          36.000  
R12  22121638.708   118169824.010         944.909          42.000  
R20  22390961.460   119734533.847       -2285.890          24.000  
R21  20411117.078   109224010.559         126.521          43.000  
> 2022  5  5 15 46 40.9999811  0 27
C19  23212721.967   120874721.914        2502.663          38.000  
C20  23129159.316   120439585.493         -67.456          43.000  
C26  24783734.578   129055355.555        -906.616          34.000  
C29  21937332.301   114233446.964        -611.508          37.000  
C30  25124014.607   130827320.027       -2314.566          42.000  
C32  26186650.559   136360740.579       -2665.927          39.000  
C35  23061638.560   120087985.854        1420.807          41.000  
E02                                                                                                                                  24389878.638    95711125.805       -1627.300          30.000  
E05                                                                                                                                  27309707.283   107169170.985        1815.619          34.000  
E25                                                                                                                                  27441167.775   107685023.428       -2509.912          30.000  
G01  22576046.728   118637920.237        2127.145          33.000    22576052.424    88593269.723        1589.134          32.000  
G08  20639793.069   108462834.052         829.279          40.000    20639796.966    80995002.313         619.461          35.000  
G10  22397109.604   117697608.572       -2494.195          40.000    22397113.201    87891074.357       -1860.995          33.000  
G16  23144694.561   121626208.399       -3696.274          37.000  
G21  21216266.684   111492243.404         244.049          40.000  
G22  24571427.555   129123723.263        2065.807          38.000  
G23  24816430.543   130411265.741       -3652.887          37.000  
G27  20765230.430   109122024.076       -1384.054          41.000  
G32  24081437.468   126548805.410        1761.201          43.000    24081447.960    94500788.674        1316.098          33.000  
R05  21849871.449   116800085.696       -1903.504          38.000  
R06  20796178.605   110972347.306        2366.040          29.000  
R07  23472871.369   125652118.519        4096.821          39.000  
R10  23876004.386   127362136.762       -4423.666          29.000  
R11  21299838.629   113819880.203       -2854.432          35.000  
R12  22121401.273   118168555.045         945.731          41.000  
R20  22391327.207   119736489.406       -2285.248          28.000  
R21  20411037.932   109223587.607         127.104          38.000  
> 2022  5  5 15 46 41.9999811  0 27
C19  23212241.999   120872219.885        2501.806          39.000  
C20  23129172.807   120439654.328         -68.896          43.000  
C26  24783907.858   129056261.165        -905.264          34.000  
C29  21937449.820   114234058.375        -612.026          41.000  
C30  25124458.899   130829635.137       -2314.110          41.000  
C32  26187163.204   136363407.195       -2667.747          39.000  
C35  23061366.348   120086565.068        1419.160          42.000  
E02                                                                                                                                  24390293.551    95712752.967       -1627.046          32.000  
E05                                                                                                                                  27309244.404   107167356.372        1814.761          32.000  
E25                                                                                                                                  27441806.932   107687533.180       -2508.077          28.000  
G01  22575642.008   118635792.268        2128.218          33.000    22575647.405    88591681.183        1587.969          28.000  
G08  20639636.877   108462005.538         827.417          39.000    20639639.275    80994383.130         618.503          39.000  
G10  22397584.775   117700103.850       -2495.403          42.000    22397587.473    87892936.194       -1862.418          34.000  
G16  23145397.275   121629905.064       -3697.462          33.000  
G21  21216219.617   111491999.354         242.685          41.000  
G22  24571035.726   129121658.331        2065.798          42.000  
G23  24817126.061   130414919.066       -3654.230          38.000  
G27  20765494.847   109123409.754       -1385.989          40.000  
G32  24081101.400   126547045.454        1760.621          43.000    24081110.994    94499472.994        1316.849          22.000  
R05  21850224.304   116801971.533       -1904.296          42.000  
R06  20795735.812   110969982.026        2364.043          29.000  
R07  23472107.498   125648030.104        4096.826          38.000  
R10  23876837.210   127366578.416       -4423.336          25.000  
R11  21300371.660   113822728.014       -2853.762          34.000  
R12  22121228.292   118167631.685         944.384          42.000  
R20  22391753.512   119738768.960       -2285.743          25.000  
R21  20411014.848   109223463.885         127.707          39.000  
> 2022  5  5 15 46 42.9999808  0 27
C19  23211671.494   120869249.336        2502.460          40.000  
C20  23129096.959   120439254.373         -67.083          43.000  
C26  24783991.800   129056697.507        -905.530          32.000  
C29  21937477.400   114234201.851        -612.322          37.000  
C30  25124812.954   130831481.215       -2313.973          39.000  
C32  26187585.012   136365605.589       -2665.512          39.000  
C35  23061003.899   120084678.133        1417.961          42.000  
E02                                                                                                                                  24390618.526    95714026.872       -1627.903          32.000  
E05                                                                                                                                  27308691.886   107165188.200        1816.107          33.000  
E25                                                                                                                                  27442355.852   107689688.655       -2509.111          30.000  
G01  22575148.850   118633191.556        2127.839          31.000    22575153.347    88589740.144        1587.295          29.000  
G08  20639388.649   108460705.081         827.614          41.000    20639391.946    80993411.835         617.554          38.000  
G10  22397968.209   117702125.705       -2493.831          40.000    22397972.107    87894446.058       -1862.983          33.000  
G16  23146011.250   121633130.132       -3698.033          37.000  
G21  21216085.909   111491284.284         240.921          40.000  
G22  24570552.161   129119119.157        2067.612          42.000  
G23  24817737.038   130418099.575       -3652.125          38.000  
G27  20765669.026   109124322.886       -1385.760          41.000    20765673.523    81488958.3361      -1034.338          35.000  
G32  24080677.194   126544811.555        1762.216          44.000  
R05  21850498.914   116803439.745       -1904.555          43.000  
R06  20795202.181   110967138.369        2362.669          30.000  
R07  23471251.291   125643446.302        4097.278          41.000  
R10  23877568.703   127370480.731       -4423.013          24.000  
R11  21300813.554   113825089.826       -2853.830          37.000  
R12  22120959.978   118166198.438         942.561          42.000  
R20  22392091.678   119740577.793       -2285.652          19.000  
R21  20410900.628   109222853.019         127.374          42.000  
> 2022  5  5 15 46 43.9999808  0 26
C19  23211189.728   120866746.836        2501.982          39.000  
C20  23129110.450   120439322.306         -69.931          43.000  
C26  24784165.379   129057603.632        -906.709          30.000  
C29  21937594.319   114234813.623        -612.071          34.000  
C30  25125256.947   130833794.479       -2315.240          41.000  
C32  26188096.458   136368271.476       -2667.084          40.000  
C35  23060731.388   120083259.495        1420.115          42.000  
E02                                                                                                                                  24391032.839    95715654.819       -1627.383          31.000  
E05                                                                                                                                  27308229.306   107163372.284        1815.287          34.000  
E25                                                                                                                                  27442995.310   107692197.543       -2508.958          33.000  
G01  22574744.130   118631064.507        2127.511          30.000    22574748.627    88588152.677        1587.611          31.000  
G08  20639231.557   108459877.623         828.154          41.000    20639234.555    80992794.049         617.766          40.000  
G10  22398442.481   117704619.911       -2495.348          41.000    22398446.678    87896309.340       -1864.320          30.000  
G21  21216037.943   111491042.396         243.684          40.000  
G22  24570159.133   129117051.782        2065.477          42.000  
G23  24818433.156   130421752.854       -3655.512          38.000  
G27  20765931.645   109125708.645       -1386.365          40.000    20765937.641    81489992.157       -1034.160          30.000  
G32  24080342.626   126543049.849        1759.264          43.000  
R05  21850858.066   116805360.057       -1906.571          43.000  
R06  20794759.388   110964775.443        2362.736          31.000  
R07  23470483.522   125639336.004        4096.053          42.000  
R10  23878399.128   127374910.990       -4423.260          28.000  
R11  21301345.385   113827931.768       -2855.347          37.000  
R12  22120779.803   118165235.269         944.639          40.000  
R20  22392516.184   119742847.740       -2285.310          27.000  
R21  20410877.544   109222728.908         127.319          42.000  
> 2022  5  5 15 46 44.9999808  0 27
C19  23210710.360   120864245.272        2502.710          42.000  
C20  23129123.041   120439393.069         -71.144          42.000  
C26  24784339.559   129058510.358        -906.957          26.000  
C29  21937712.138   114235426.020        -612.921          42.000  
C30  25125701.539   130836109.759       -2314.296          41.000  
C32  26188608.204   136370939.388       -2669.347          40.000  
C35  23060457.977   120081840.118        1417.745          38.000  
E02                                                                                                                                  24391447.452    95717281.717       -1626.681          31.000  
E05                                                                                                                                  27307767.026   107161557.407        1814.995          35.000  
E25                                                                                                                                  27443634.467   107694706.445       -2508.002          35.000  
G01  22574338.810   118628936.774        2127.717          34.000    22574343.307    88586563.649        1589.864          34.000  
G08  20639072.667   108459049.641         825.802          40.000    20639077.464    80992176.498         616.812          39.000  
G10  22398918.551   117707116.234       -2497.815          40.000    22398922.149    87898173.335       -1864.215          35.000  
G16  23147422.373   121640526.9071      -3696.397          39.000  
G21  21215991.175   111490798.970         241.262          41.000  
G22  24569767.604   129114986.437        2066.716          41.000  
G23  24819126.876   130425407.846       -3656.089          39.000  
G27  20766198.460   109127095.517       -1387.012          39.000    20766202.357    81491027.029       -1035.757          39.000  
G32  24080007.758   126541290.868        1760.826          42.000  
R05  21851214.519   116807265.514       -1908.888          43.000  
R06  20794316.894   110962413.280        2361.313          30.000  
R07  23469718.152   125635239.640        4098.944          41.000  
R10  23879229.254   127379339.168       -4422.960          33.000  
R11  21301882.014   113830799.828       -2854.819          38.000  
R12  22120604.124   118164297.451         941.156          38.000  
R20  22392943.088   119745130.522       -2286.522          24.000  
R21  20410855.659   109222611.608         125.564          44.000  
> 2022  5  5 15 46 45.9999805  0 27
C19  23210138.655   120861272.814        2502.028          41.000  
C20  23129047.194   120438994.178         -70.089          41.000  
C26  24784424.400   129058949.174        -906.934          31.000  
C29  21937739.719   114235570.907        -613.419          39.000  
C30  25126057.692   130837955.639       -2315.344          41.000  
C32  26189032.410   136373140.820       -2668.720          39.000  
C35  23060095.528   120079954.587        1418.850          40.000  
E02                                                                                                                                  24391772.427    95718555.777       -1627.475          32.000  
E05                                                                                                                                  27307214.209   107159388.505        1816.277          35.000  
E25                                                                                                                                  27444183.387   107696860.659       -2508.130          35.000  
G01  22573844.453   118626336.562        2127.467          34.000    22573848.050    88584621.704        1588.341          33.000  
G08  20638826.238   108457751.157         827.041          39.000    20638829.536    80991207.270         617.187          37.000  
G10  22399305.284   117709141.109       -2497.038          40.000    22399307.682    87899685.838       -1865.372          34.000  
G16  23148036.648   121643749.699       -3698.489          41.000  
G21  21215854.170   111490085.310         242.295          40.000  
G22  24569281.041   129112445.192        2066.347          40.000  
G23  24819731.557   130428591.595       -3655.607          37.000  
G27  20766372.639   109128009.396       -1387.503          41.000    20766376.537    81491709.828       -1035.809          35.000  
G32  24079581.752   126539056.577        1759.590          43.000  
R05  21851481.034   116808689.684       -1908.986          41.000  
R06  20793786.561   110959572.705        2358.588          30.000  
R07  23468860.446   125630647.473        4097.955          42.000  
R10  23879967.642   127383277.791       -4420.678          35.000  
R11  21302328.705   113833186.214       -2855.391          36.000  
R12  22120339.108   118162881.164         941.021          39.000  
R20  22393283.952   119746953.400       -2286.966          25.000  
R21  20410739.939   109221992.501         126.501          42.000  
> 2022  5  5 15 46 46.9999805  0 27
C19  23209658.987   120858771.696        2500.909          41.000  
C20  23129060.984   120439065.753         -71.662          40.000  
C26  24784597.980   129059855.609        -906.032          34.000  
C29  21937861.135   114236183.941        -613.206          40.000  
C30  25126502.284   130840271.888       -2316.114          42.000  
C32  26189545.055   136375809.363       -2667.746          39.000  
C35  23059823.916   120078534.260        1420.344          40.000  
E02                                                                                                                                  24392187.340    95720183.543       -1627.656          35.000  
E05                                                                                                                                  27306751.629   107157572.732        1815.635          38.000  
E25                                                                                                                                  27444822.545   107699369.179       -2508.507          33.000  
G01  22573440.332   118624208.877        2128.098          35.000    22573442.731    88583032.949        1589.331          31.000  
G08  20638669.446   108456923.945         827.576          42.000    20638672.145    80990589.580         617.176          37.000  
G10  22399778.656   117711638.188       -2496.910          43.000    22399783.453    87901551.225       -1865.281          39.000  
G16  23148739.661   121647448.461       -3699.272          41.000  
G21  21215809.201   111489842.497         243.741          42.000  
G22  24568887.713   129110380.077        2064.735          37.000  
G23  24820427.076   130432246.699       -3654.144          38.000  
G27  20766633.159   109129396.782       -1387.533          41.000    20766640.954    81492746.000       -1036.526          39.000  
G32  24079246.884   126537298.135        1758.190          43.000  
R05  21851838.987   116810602.829       -1909.081          43.000  
R06  20793344.967   110957213.355        2359.491          26.000  
R07  23468096.875   125626560.936        4096.806          40.000  
R10  23880797.168   127387702.838       -4421.310          39.000  
R11  21302864.434   113836049.378       -2856.068          38.000  
R12  22120165.228   118161952.359         943.044          34.000  
R20  22393702.762   119749192.696       -2287.073          23.000  
R21  20410716.555   109221867.236         127.126          42.000  
